time(millisecond),datetime(utc),latitude,longitude,height_above_takeoff(meters),height_above_ground_at_drone_location(meters),ground_elevation_at_drone_location(meters),altitude_above_seaLevel(meters),height_sonar(meters),speed(m/s),distance(meters),mileage(meters),satellites,gpslevel,voltage(v),max_altitude(meters),max_ascent(meters),max_speed(m/s),max_distance(meters), xSpeed(m/s), ySpeed(m/s), zSpeed(m/s), compass_heading(degrees), pitch(degrees), roll(degrees),isPhoto,isVideo,rc_elevator,rc_aileron,rc_throttle,rc_rudder,rc_elevator(percent),rc_aileron(percent),rc_throttle(percent),rc_rudder(percent),gimbal_heading(degrees),gimbal_pitch(degrees),gimbal_roll(degrees),battery_percent,voltageCell1,voltageCell2,voltageCell3,voltageCell4,voltageCell5,voltageCell6,current(A),battery_temperature(c),altitude(meters),ascent(meters),flycStateRaw,flycState,message
0,2023-03-08 23:30:24,-23.5067215047082,152.09149678433,0,Available with any HD 360 subscription,Available with any HD 360 subscription,1.0452784,0.3,0,0,0,16,5,0,1.0452784,0,0,0,0,0,0,327.1, 0.3, -0.1,0,0,364,364,364,1684,-100,-100,-100,100,0,0,0,100,,,,,,,0,,1.0452784,0,41,Motors_Started,
100,2023-03-08 23:30:25,-23.5067214946555,152.091496793616,0,,,1.0452784,0.3,0,0.0014651,0.0014651,16,5,0,1.0452784,0,0,0.0014651,0,0,0,327.1, 0.3, -0.1,0,0,364,364,364,1684,-100,-100,-100,100,0,0,0,100,,,,,,,0,,1.0452784,0,41,Motors_Started,
200,2023-03-08 23:30:25,-23.5067214982982,152.091496794221,0,,,1.0452784,0.3,0,0.0012351,0.00187485,16,5,0,1.0452784,0,0,0.0014651,0,0,0,327.1, 0.3, -0.1,0,0,364,364,364,1684,-100,-100,-100,100,0,0,0,100,,,,,,,0,,1.0452784,0,41,Motors_Started,
300,2023-03-08 23:30:25,-23.5067214905484,152.091496643066,0,,,1.0452784,0.3,0,0.0144916,0.0173133,16,5,0,1.0452784,0,0,0.0144916,0,0,0,327.1, 0.3, -0.1,0,0,364,364,364,1684,-100,-100,-100,100,0,0,0,100,,,,,,,0,,1.0452784,0,41,Motors_Started,
400,2023-03-08 23:30:25,-23.5067214934336,152.09149663081,0,,,1.0452784,0.3,0,0.0157058,0.0186037,16,5,0,1.0452784,0,0,0.0157058,0,0,0,327.1, 0.3, -0.1,0,0,1024,1024,1024,1024,0,0,0,0,0,0,0,100,,,,,,,0,,1.0452784,0,41,Motors_Started,
500,2023-03-08 23:30:25,-23.5067214864232,152.09149665615,0,,,1.0452784,0.3,0,0.0132287,0.0213029,16,5,0,1.0452784,0,0,0.0157058,0,0,0,327.1, 0.3, -0.1,0,0,1024,1024,1024,1024,0,0,0,0,0,0,0,100,,,,,,,0,,1.0452784,0,41,Motors_Started,"Setting new Return-To-Home altitude to 50m (164 ft). Data Recorder File Index is 79"
600,2023-03-08 23:30:25,-23.5067214885952,152.091496647848,0,,,1.0452784,0.3,0,0.014033,0.0221834,16,5,0,1.0452784,0,0,0.0157058,0,0,0,327.1, 0.3, -0.1,0,0,1024,1024,1024,1024,0,0,0,0,0,0,0,100,,,,,,,0,,1.0452784,0,41,Motors_Started,
700,2023-03-08 23:30:25,-23.5067214838724,152.091496669622,0,,,1.0452784,0.3,0,0.011925,0.0244651,16,5,0,1.0452784,0,0,0.0157058,0,0,0,327.1, 0.3, -0.1,0,0,1024,1024,1024,1024,0,0,0,0,0,0,0,100,,,,,,,0,,1.0452784,0,41,Motors_Started,
800,2023-03-08 23:30:25,-23.5067214852896,152.091496664632,0,,,1.0452784,0.2,0,0.0123961,0.0249978,16,5,0,1.0452784,0,0,0.0157058,0,0,0,327, 0.3, -0.1,0,0,1024,1024,1024,1024,0,0,0,0,0,0,0,100,,,,,,,0,,1.0452784,0,41,Motors_Started,
900,2023-03-08 23:30:25,-23.5067214852035,152.091496680824,0,,,1.0452784,0.3,0,0.0107758,0.0266491,16,5,0,1.0452784,0,0,0.0157058,0,0,0,327, 0.3, -0.1,0,0,1024,1024,1024,1024,0,0,0,0,0,0,0,100,,,,,,,0,,1.0452784,0,41,Motors_Started,
1000,2023-03-08 23:30:25,-23.5067214851218,152.091496676634,0,,,1.0452784,0.3,0,0.0111965,0.0270765,16,5,0,1.0452784,0,0,0.0157058,0,0,0,327.1, 0.3, -0.1,0,0,1024,1024,1024,1024,0,0,0,0,0,0,0,100,,,,,,,0,,1.0452784,0,41,Motors_Started,
1100,2023-03-08 23:30:26,-23.5067216417962,152.091496846704,0,,,1.0452784,0.3,0,0.0165187,0.0516601,16,5,0,1.0452784,0,0,0.0165187,0,0,0,327.2, 0.3, -0.1,0,0,1024,1024,1024,1024,0,0,0,0,0,0,0,100,,,,,,,0,,1.0452784,0,41,Motors_Started,
1200,2023-03-08 23:30:26,-23.5067216576954,152.091496860869,0,,,1.0452784,0.3,0,0.0187181,0.0539433,16,5,0,1.0452784,0,0,0.0187181,0,0,0,327.2, 0.3, -0.2,0,0,1024,1024,1024,1024,0,0,0,0,0,0,0,100,,,,,,,0,,1.0452784,0,41,Motors_Started,
1300,2023-03-08 23:30:26,-23.5067216299026,152.091496845561,0,,,1.0452784,0.3,0,0.0152585,0.0574059,16,5,0,1.0452784,0,0,0.0187181,0,0,0,327.1, 0.3, -0.1,0,0,1024,1024,1024,1024,0,0,0,0,0,0,0,100,,,,,,,0,,1.0452784,0,41,Motors_Started,
1400,2023-03-08 23:30:26,-23.5067216439013,152.091496860037,0,,,1.0452784,0.3,0,0.0172976,0.0595513,16,5,0,1.0452784,0,0,0.0187181,0,0,0,327.1, 0.3, -0.1,0,0,1024,1024,1024,1024,0,0,0,0,0,0,0,100,,,,,,,0,,1.0452784,0,41,Motors_Started,
1500,2023-03-08 23:30:26,-23.5067216164317,152.091496687383,0,,,1.0452784,0.3,0,0.0158779,0.0774212,16,5,0,1.0452784,0,0,0.0187181,0,0,0,327.1, 0.3, -0.1,0,0,1024,1024,1024,1024,0,0,0,0,0,0,0,100,,,,,,,0,,1.0452784,0,41,Motors_Started,
1600,2023-03-08 23:30:26,-23.5067216256589,152.09149668584,0,,,1.0452784,0.3,0,0.0167867,0.0784593,16,5,0,1.0452784,0,0,0.0187181,0,0,0,327, 0.2, -0.1,0,0,1024,1024,1024,1024,0,0,0,0,0,0,0,100,,,,,,,0,,1.0452784,0,41,Motors_Started,
1700,2023-03-08 23:30:26,-23.5067216236097,152.09149669004,0,,,1.0452784,0.3,0,0.0163491,0.0789445,16,5,0,1.0452784,0,0,0.0187181,0,0,0,327, 0.3, -0.1,0,0,1024,1024,1024,1024,0,0,0,0,0,0,0,100,,,,,,,0,,1.0452784,0,41,Motors_Started,
1800,2023-03-08 23:30:26,-23.5067216346834,152.091496690016,0,,,1.0452784,0.3,0,0.0173616,0.080176,16,5,0,1.0452784,0,0,0.0187181,0,0,0,327, 0.2, -0.2,0,0,1024,1024,1024,1024,0,0,0,0,0,0,0,100,,,,,,,0,,1.0452784,0,41,Motors_Started,
1900,2023-03-08 23:30:26,-23.5067216245678,152.091496698512,0,,,1.0452784,0.3,0,0.0159454,0.0815958,16,5,0,1.0452784,0,0,0.0187181,0,0,0,327, 0.3, -0.1,0,0,1024,1024,1024,1024,0,0,0,0,0,0,0,100,,,,,,,0,,1.0452784,0,41,Motors_Started,
2000,2023-03-08 23:30:26,-23.5067216348119,152.091496700192,0,,,1.0452784,0.3,0,0.0168212,0.0827479,16,5,0,1.0452784,0,0,0.0187181,0,0,0,327, 0.2, -0.1,0,0,1024,1024,1024,1024,0,0,0,0,0,0,0,100,,,,,,,0,,1.0452784,0,10,Assisted_Takeoff,
2100,2023-03-08 23:30:26,-23.5067216082234,152.091496707469,0,,,1.0452784,0.3,0,0.0139266,0.0857964,16,5,0,1.0452784,0,0,0.0187181,0,0,0,327, 0.2, -0.1,0,0,1024,1024,1024,1024,0,0,0,0,0,0,0,100,,,,,,,0,,1.0452784,0,10,Assisted_Takeoff,
2200,2023-03-08 23:30:27,-23.5067216161224,152.091496713017,0,,,1.0452784,0.3,0,0.0143665,0.0868412,16,5,0,1.0452784,0,0,0.0187181,0,0,0,327, 0.3, -0.1,0,0,1024,1024,1024,1024,0,0,0,0,0,0,0,100,,,,,,,0,,1.0452784,0,10,Assisted_Takeoff,
2300,2023-03-08 23:30:27,-23.5067214560387,152.091496867324,0,,,1.0452784,0.2,0,0.0100461,0.110601,16,5,0,1.0452784,0,0,0.0187181,0,0,0,327, 0.2, -0.1,0,0,1024,1024,1024,1024,0,0,0,0,0,0,0,100,,,,,,,0,,1.0452784,0,10,Assisted_Takeoff,
2400,2023-03-08 23:30:27,-23.5067214488066,152.091496887271,0,,,1.0452784,0.2,0,0.0122002,0.112789,16,5,0,1.0452784,0,0,0.0187181,0,0,0,327, 0.3, -0.1,0,0,1024,1024,1024,1024,0,0,0,0,0,0,0,100,,,,,,,0,,1.0452784,0,10,Assisted_Takeoff,
2500,2023-03-08 23:30:27,-23.5067214456687,152.091496863334,0,,,1.0452784,0.3,0,0.0103931,0.115254,16,5,0,1.0452784,0,0,0.0187181,0,0,0,327, 0.2, -0.1,0,0,1024,1024,1024,1024,0,0,0,0,0,0,0,100,,,,,,,0,,1.0452784,0,10,Assisted_Takeoff,
2600,2023-03-08 23:30:27,-23.5067214358906,152.091496881299,0,,,1.0452784,0.3,0,0.0125041,0.117385,16,5,0,1.0452784,0,0,0.0187181,0,0,0,327, 0.2, -0.1,0,0,1024,1024,1024,1024,0,0,0,0,0,0,0,100,,,,,,,0,,1.0452784,0,10,Assisted_Takeoff,
2700,2023-03-08 23:30:27,-23.5067214461083,152.09149685418,0,,,1.0452784,0.3,0,0.00965428,0.120375,16,5,0,1.0452784,0,0,0.0187181,0,0,0,327, 0.2, -0.1,0,0,1024,1024,1024,1024,0,0,0,0,0,0,0,100,,,,,,,0,,1.0452784,0,10,Assisted_Takeoff,
2800,2023-03-08 23:30:27,-23.5067214360954,152.091496869477,0,,,1.0452784,0.3,0,0.0115592,0.122291,16,5,0,1.0452784,0,0,0.0187181,0,0,0,327, 0.2, -0.1,0,0,1024,1024,1024,1024,0,0,0,0,0,0,0,100,,,,,,,0,,1.0452784,0,10,Assisted_Takeoff,
2900,2023-03-08 23:30:27,-23.5067214478077,152.091496846095,0,,,1.0452784,0.3,0,0.00892816,0.125008,16,5,0,1.0452784,0,0,0.0187181,0,0,0,327, 0.2, -0.1,0,0,1024,1024,1024,1024,0,0,0,0,0,0,0,100,,,,,,,0,,1.0452784,0,10,Assisted_Takeoff,
3000,2023-03-08 23:30:27,-23.5067214396783,152.091496859413,0,,,1.0452784,0.3,0,0.010532,0.12664,16,5,0,1.0452784,0,0,0.0187181,0,0,0,327, 0.3, -0.1,0,0,1024,1024,1024,1024,0,0,0,0,0,0,0,100,,,,,,,0,,1.0452784,0,10,Assisted_Takeoff,
3100,2023-03-08 23:30:27,-23.5067214554751,152.091496838209,0,,,1.0452784,0.2,0,0.00775656,0.129426,16,5,0,1.0452784,0,0,0.0187181,0,0,0,327, 0.3, -0.1,0,0,1024,1024,1024,1024,0,0,0,0,0,0,0,100,,,,,,,0,,1.0452784,0,10,Assisted_Takeoff,
3200,2023-03-08 23:30:28,-23.506721450565,152.091496851086,0,,,1.0452784,0.2,0,0.00908822,0.130848,16,5,0,1.0452784,0,0,0.0187181,0,0,0,327, 0.3, -0.1,0,0,1024,1024,1024,1024,0,0,0,0,0,0,0,100,,,,,,,0,,1.0452784,0,10,Assisted_Takeoff,
3300,2023-03-08 23:30:28,-23.5067214631318,152.091496834097,0,,,1.0452784,0.3,0,0.00686541,0.133074,16,5,0,1.0452784,0,0,0.0187181,0,0,0,327, 0.3, -0.1,0,0,1024,1024,1024,1024,0,0,0,0,0,0,0,100,,,,,,,0,,1.0452784,0,10,Assisted_Takeoff,
3400,2023-03-08 23:30:28,-23.5067214588698,152.091496845076,0,,,1.0452784,0.3,0,0.00802237,0.13429,16,5,0,1.0452784,0,0,0.0187181,0,0,0,327, 0.3, -0.1,0,0,1024,1024,1024,1024,0,0,0,0,0,0,0,100,,,,,,,0,,1.0452784,0,10,Assisted_Takeoff,
3500,2023-03-08 23:30:28,-23.5067214705595,152.091496829076,0,,,1.0452784,0.3,0,0.00593655,0.136376,16,5,0,1.0452784,0,0,0.0187181,0,0,0,327, 0.3, -0.1,0,0,1024,1024,1024,1024,0,0,0,0,0,0,0,100,,,,,,,0,,1.0452784,0,10,Assisted_Takeoff,
3600,2023-03-08 23:30:28,-23.5067214667895,152.091496839449,0,,,1.0452784,0.3,0,0.00702675,0.137514,16,5,0,1.0452784,0,0,0.0187181,0,0,0,327, 0.3, -0.1,0,0,1024,1024,1024,1024,0,0,0,0,0,0,0,100,,,,,,,0,,1.0452784,0,10,Assisted_Takeoff,
3700,2023-03-08 23:30:28,-23.5067214826584,152.091496823466,0,,,1.0452784,0.3,0,0.00468403,0.139916,16,5,0,1.0452784,0,0,0.0187181,0,0,0,327, 0.3, -0.1,0,0,1024,1024,1024,1024,0,0,0,0,0,0,0,100,,,,,,,0,,1.0452784,0,10,Assisted_Takeoff,
3800,2023-03-08 23:30:28,-23.5067214813125,152.091496831086,0,,,1.0452784,0.3,0,0.00543171,0.140707,16,5,0,1.0452784,0,0,0.0187181,0,0,0,327, 0.3, -0.2,0,0,1024,1024,1024,1024,0,0,0,0,0,0,0,100,,,,,,,0,,1.0452784,0,10,Assisted_Takeoff,
3900,2023-03-08 23:30:28,-23.506721479186,152.091496819215,0,,,1.0452784,0.3,0,0.00455091,0.141941,16,5,0,1.0452784,0,0,0.0187181,0,0,0,327, 0.3, -0.1,0,0,1024,1024,1024,1024,0,0,0,0,0,0,0,100,,,,,,,0,,1.0452784,0,10,Assisted_Takeoff,
4000,2023-03-08 23:30:28,-23.5067214776328,152.091496827371,0,,,1.0452784,0.3,0,0.00532268,0.14279,16,5,0,1.0452784,0,0,0.0187181,0,0,0,327, 0.3, -0.1,0,0,1024,1024,1024,1024,0,0,0,0,0,0,0,100,,,,,,,0,,1.0452784,0,10,Assisted_Takeoff,
4100,2023-03-08 23:30:28,-23.5067214845937,152.091496814954,0,,,1.0452784,0.3,0,0.00384137,0.144274,16,5,0,1.0452784,0,0,0.0187181,0,0,0,327, 0.3, -0.2,0,0,1024,1024,1024,1024,0,0,0,0,0,0,0,100,,,,,,,0,,1.0452784,0,10,Assisted_Takeoff,
4200,2023-03-08 23:30:29,-23.5067214843794,152.091496821254,0,,,1.0452784,0.3,0,0.00439187,0.144917,16,5,0,1.0452784,0,0,0.0187181,0,0,0,327, 0.3, -0.1,0,0,1024,1024,1024,1024,0,0,0,0,0,0,0,100,,,,,,,0,,1.0452784,0,10,Assisted_Takeoff,
4300,2023-03-08 23:30:29,-23.5067216472422,152.091496811502,0,,,1.0452784,0.3,0,0.016091,0.163056,16,5,0,1.0452784,0,0,0.0187181,0,0,0,327, 0.3, -0.1,0,0,1024,1024,1024,1024,0,0,0,0,0,0,0,100,,,,,,,0,,1.0452784,0,10,Assisted_Takeoff,
4400,2023-03-08 23:30:29,-23.5067216619066,152.091496815725,0,,,1.0452784,0.3,0,0.0177722,0.164743,16,5,0,1.0452784,0,0,0.0187181,0,0,0,326.9, 0.3, -0.1,0,0,1024,1024,1024,1024,0,0,0,0,0,0,0,100,,,,,,,0,,1.0452784,0,10,Assisted_Takeoff,
4500,2023-03-08 23:30:29,-23.5067216383871,152.091496808314,0,,,1.0452784,0.3,0,0.0150658,0.167465,16,5,0,1.0452784,0,0,0.0187181,0,0,0,326.9, 0.3, -0.2,0,0,1024,1024,1024,1024,0,0,0,0,0,0,0,100,,,,,,,0,,1.0452784,0,10,Assisted_Takeoff,
4600,2023-03-08 23:30:29,-23.5067216516517,152.091496812631,0,,,1.0452784,0.3,0,0.0165939,0.169005,16,5,0,1.0452784,0,0,0.0187181,0,0,0,327, 0.3, -0.1,0,0,1024,1024,1024,1024,0,0,0,0,0,0,0,100,,,,,,,0,,1.0452784,0,10,Assisted_Takeoff,
4700,2023-03-08 23:30:29,-23.5067216377707,152.091496801098,0,,,1.0452784,0.3,0,0.0148958,0.170945,16,5,0,1.0452784,0,0,0.0187181,0,0,0,327, 0.2, -0.1,0,0,1024,1024,1024,1024,0,0,0,0,0,0,0,100,,,,,,,0,,1.0452784,0,10,Assisted_Takeoff,
4800,2023-03-08 23:30:29,-23.5067216517083,152.091496802811,0,,,1.0452784,0.3,0,0.0164556,0.172505,16,5,0,1.0452784,0,0,0.0187181,0,0,0,326.9, 0.3, -0.2,0,0,1024,1024,1024,1024,0,0,0,0,0,0,0,100,,,,,,,0,,1.0452784,0,10,Assisted_Takeoff,
4900,2023-03-08 23:30:29,-23.506721629582,152.091496798285,0,,,1.0452784,0.3,0,0.0139595,0.175008,16,5,0,1.0452784,0,0,0.0187181,0,0,0,326.9, 0.3, -0.2,0,0,1024,1024,1024,1024,0,0,0,0,0,0,0,100,,,,,,,0,,1.0452784,0,10,Assisted_Takeoff,
5000,2023-03-08 23:30:29,-23.506721637495,152.091496798942,0,,,1.0452784,0.3,0,0.0148417,0.175891,16,5,0,1.0452784,0,0,0.0187181,0,0,0,327, 0.2, -0.1,0,0,1024,1024,1024,1024,0,0,0,0,0,0,0,100,,,,,,,0,,1.0452784,0,10,Assisted_Takeoff,
5100,2023-03-08 23:30:30,-23.5067216244607,152.091496952039,0,,,1.0452784,0.3,0,0.0216759,0.191571,16,5,0,1.0452784,0,0,0.0216759,0,0,0,327, 0.2, -0.1,0,0,1024,1024,1024,1024,0,0,0,0,0,0,0,100,,,,,,,0,,1.0452784,0,10,Assisted_Takeoff,
5200,2023-03-08 23:30:30,-23.5067216342622,152.091496965886,0,,,1.0452784,0.3,0,0.0234597,0.193354,16,5,0,1.0452784,0,0,0.0234597,0,0,0,327, 0.3, -0.2,0,0,1024,1024,1024,1024,0,0,0,0,0,0,0,100,,,,,,,0,,1.0452784,0,10,Assisted_Takeoff,
5300,2023-03-08 23:30:30,-23.5067216122672,152.091496939441,0,,,1.0452784,0.3,0,0.0198311,0.196995,16,5,0,1.0452784,0,0,0.0234597,0,0,0,327, 0.3, -0.1,0,0,1024,1024,1024,1024,0,0,0,0,0,0,0,100,,,,,,,0,,1.0452784,0,10,Assisted_Takeoff,
5400,2023-03-08 23:30:30,-23.5067216185643,152.091496952117,0,,,1.0452784,0.3,0,0.0212857,0.198465,16,5,0,1.0452784,0,0,0.0234597,0,0,0,327, 0.2, -0.1,0,0,1024,1024,1024,1024,0,0,0,0,0,0,0,100,,,,,,,0,,1.0452784,0,10,Assisted_Takeoff,
5500,2023-03-08 23:30:30,-23.5067216097754,152.091496931391,0,,,1.0452784,0.3,0,0.0190111,0.200794,16,5,0,1.0452784,0,0,0.0234597,0,0,0,327, 0.3, -0.1,0,0,1024,1024,1024,1024,0,0,0,0,0,0,0,100,,,,,,,0,,1.0452784,0,10,Assisted_Takeoff,
5600,2023-03-08 23:30:30,-23.5067216162015,152.091496940646,0,,,1.0452784,0.3,0,0.0201949,0.201978,16,5,0,1.0452784,0,0,0.0234597,0,0,0,327, 0.3, -0.2,0,0,1024,1024,1024,1024,0,0,0,0,0,0,0,100,,,,,,,0,,1.0452784,0,10,Assisted_Takeoff,
5700,2023-03-08 23:30:30,-23.5067217637337,152.091496924985,0,,,1.0452784,0.3,0,0.0321789,0.218462,16,5,0,1.0452784,0,0,0.0321789,0,0,0,327, 0.2, -0.1,0,0,1024,1024,1024,1024,0,0,0,0,0,0,0,100,,,,,,,0,,1.0452784,0,10,Assisted_Takeoff,
5800,2023-03-08 23:30:30,-23.5067217826501,152.091496932945,0,,,1.0452784,0.3,0,0.0344244,0.220717,16,5,0,1.0452784,0,0,0.0344244,0,0,0,327, 0.3, -0.1,0,0,1024,1024,1024,1024,0,0,0,0,0,0,0,100,,,,,,,0,,1.0452784,0,10,Assisted_Takeoff,
5900,2023-03-08 23:30:30,-23.5067217499838,152.091496917298,0,,,1.0452784,0.3,0,0.0304607,0.224684,16,5,0,1.0452784,0,0,0.0344244,0,0,0,327, 0.3, -0.1,0,0,1024,1024,1024,1024,0,0,0,0,0,0,0,100,,,,,,,0,,1.0452784,0,10,Assisted_Takeoff,
6000,2023-03-08 23:30:30,-23.5067217645255,152.091496922335,0,,,1.0452784,0.3,0,0.0321385,0.226381,16,5,0,1.0452784,0,0,0.0344244,0,0,0,327, 0.3, -0.2,0,0,1024,1024,1024,1024,0,0,0,0,0,0,0,100,,,,,,,0,,1.0452784,0,10,Assisted_Takeoff,
6100,2023-03-08 23:30:31,-23.506721735027,152.091496912568,0,,,1.0452784,0.3,0,0.0287582,0.22981,16,5,0,1.0452784,0,0,0.0344244,0,0,0,327, 0.2, -0.1,0,0,1024,1024,1024,1024,0,0,0,0,0,0,0,100,,,,,,,0,,1.0452784,0,10,Assisted_Takeoff,
6200,2023-03-08 23:30:31,-23.5067217483704,152.091496919261,0,,,1.0452784,0.2,0,0.0303902,0.231443,16,5,0,1.0452784,0,0,0.0344244,0,0,0,327, 0.3, -0.1,0,0,1024,1024,1024,1024,0,0,0,0,0,0,0,100,,,,,,,0,,1.0452784,0,10,Assisted_Takeoff,
6300,2023-03-08 23:30:31,-23.5067217255126,152.091496909985,0,,,1.0452784,0.3,0,0.0276972,0.234155,16,5,0,1.0452784,0,0,0.0344244,0,0,0,327, 0.3, -0.1,0,0,1024,1024,1024,1024,0,0,0,0,0,0,0,100,,,,,,,0,,1.0452784,0,10,Assisted_Takeoff,
6400,2023-03-08 23:30:31,-23.5067217333526,152.09149691265,0,,,1.0452784,0.2,0,0.0285963,0.235068,16,5,0,1.0452784,0,0,0.0344244,0,0,0,327, 0.2, -0.1,0,0,1024,1024,1024,1024,0,0,0,0,0,0,0,100,,,,,,,0,,1.0452784,0,10,Assisted_Takeoff,
6500,2023-03-08 23:30:31,-23.5067218713657,152.091496906587,0,,,1.0452784,0.3,0,0.042638,0.250429,16,5,0,1.0452784,0,0,0.042638,0,0,0,327, 0.2, -0.1,0,0,1024,1024,1024,1024,0,0,0,0,0,0,0,100,,,,,,,0,,1.0452784,0,10,Assisted_Takeoff,
6600,2023-03-08 23:30:31,-23.5067218934246,152.091496909974,0,,,1.0452784,0.2,0,0.0450866,0.252906,16,5,0,1.0452784,0,0,0.0450866,0,0,0,327, 0.3, -0.1,0,0,1024,1024,1024,1024,0,0,0,0,0,0,0,100,,,,,,,0,,1.0452784,0,10,Assisted_Takeoff,
6700,2023-03-08 23:30:31,-23.5067218547847,152.091496900778,0,,,1.0452784,0.3,0,0.0407015,0.257304,16,5,0,1.0452784,0,0,0.0450866,0,0,0,327, 0.3, -0.2,0,0,1024,1024,1024,1024,0,0,0,0,0,0,0,100,,,,,,,0,,1.0452784,0,10,Assisted_Takeoff,
6800,2023-03-08 23:30:31,-23.5067218699054,152.091496901582,0,,,1.0452784,0.3,0,0.0423358,0.258988,16,5,0,1.0452784,0,0,0.0450866,0,0,0,327, 0.2, -0.1,0,0,1024,1024,1024,1024,0,0,0,0,0,0,0,100,,,,,,,0,,1.0452784,0,10,Assisted_Takeoff,
6900,2023-03-08 23:30:31,-23.5067218375136,152.09149705652,0,,,1.0452784,0.3,0,0.0462623,0.275193,16,5,0,1.0452784,0,0,0.0462623,0,0,0,327, 0.3, -0.1,0,0,1024,1024,1024,1024,0,0,0,0,0,0,0,100,,,,,,,0,,1.0452784,0,10,Assisted_Takeoff,
7000,2023-03-08 23:30:31,-23.5067218499634,152.091497071742,0,,,1.0452784,0.3,0,0.0483031,0.277273,16,5,0,1.0452784,0,0,0.0483031,0,0,0,327, 0.3, -0.1,0,0,1024,1024,1024,1024,0,0,0,0,0,0,0,100,,,,,,,0,,1.0452784,0,10,Assisted_Takeoff,
7100,2023-03-08 23:30:31,-23.5067218232016,152.091497047182,0,,,1.0452784,0.3,0,0.0444181,0.281163,16,5,0,1.0452784,0,0,0.0483031,0,0,0,327, 0.2, -0.2,0,0,1024,1024,1024,1024,0,0,0,0,0,0,0,100,,,,,,,0,,1.0452784,0,10,Assisted_Takeoff,
7200,2023-03-08 23:30:32,-23.5067218322108,152.091497060587,0,,,1.0452784,0.3,0,0.0460445,0.282858,16,5,0,1.0452784,0,0,0.0483031,0,0,0,327, 0.2, -0.1,0,0,1024,1024,1024,1024,0,0,0,0,0,0,0,100,,,,,,,0,,1.0452784,0,10,Assisted_Takeoff,
7300,2023-03-08 23:30:32,-23.5067219700756,152.091497036835,0,,,1.0452784,0.3,0,0.0578039,0.298379,16,5,0,1.0452784,0,0,0.0578039,0,0,0,327, 0.3, -0.1,0,0,1024,1024,1024,1024,0,0,0,0,0,0,0,100,,,,,,,0,,1.0452784,0,10,Assisted_Takeoff,
7400,2023-03-08 23:30:32,-23.5067219915061,152.091497047603,0,,,1.0452784,0.3,0,0.0604268,0.301003,16,5,0,1.0452784,0,0,0.0604268,0,0,0,327, 0.3, -0.2,0,0,1024,1024,1024,1024,0,0,0,0,0,0,0,100,,,,,,,0,,1.0452784,0,10,Assisted_Takeoff,
7500,2023-03-08 23:30:32,-23.5067219537834,152.091497191289,0,,,1.0452784,0.3,0,0.064933,0.316245,16,5,0,1.0452784,0,0,0.064933,0,0,0,327, 0.2, -0.2,0,0,1024,1024,1024,1024,0,0,0,0,0,0,0,100,,,,,,,0,,1.0452784,0,10,Assisted_Takeoff,
7600,2023-03-08 23:30:32,-23.5067219716369,152.091497217715,0,,,1.0452784,0.3,0,0.0681871,0.319592,16,5,0,1.0452784,0,0,0.0681871,0,0,0,327, 0.3, -0.1,0,0,1024,1024,1024,1024,0,0,0,0,0,0,0,100,,,,,,,0,,1.0452784,0,10,Assisted_Takeoff,
7700,2023-03-08 23:30:32,-23.5067219436693,152.091497178535,0,,,1.0452784,0.3,0,0.0632373,0.324655,16,5,0,1.0452784,0,0,0.0681871,0,0,0,327, 0.3, -0.1,0,0,1024,1024,1185,1024,0,0,24,0,0,0,0,100,,,,,,,0,,1.0452784,0,10,Assisted_Takeoff,
7800,2023-03-08 23:30:32,-23.5067219564676,152.091497199145,0,,,1.0452784,0.3,0,0.065676,0.327194,16,5,0,1.0452784,0,0,0.0681871,0,0,0,327, 0.2, -0.2,0,0,1024,1024,1625,1024,0,0,91,0,0,0,0,100,,,,,,,0,,1.0452784,0,10,Assisted_Takeoff,
7900,2023-03-08 23:30:32,-23.5067219268761,152.091497166984,0,,,1.0452784,0.3,0,0.0610475,0.33184,16,5,0,1.0452784,0,0,0.0681871,0,0,0,327, 0.2, -0.2,0,0,1024,1024,1684,1024,0,0,100,0,0,0,0,100,,,,,,,0,,1.0452784,0,10,Assisted_Takeoff,
8000,2023-03-08 23:30:32,-23.5067219365601,152.091497184984,0,,,1.0452784,0.3,0,0.0630532,0.333968,16,5,0,1.0452784,0,0,0.0681871,0,0,0,327, 0.2, -0.2,0,0,1024,1024,1684,1024,0,0,100,0,0,0,0,100,,,,,,,0,,1.0452784,0,10,Assisted_Takeoff,
8100,2023-03-08 23:30:32,-23.5067220743771,152.091497148707,0,,,1.0452784,0.3,0,0.0734441,0.349734,16,5,0,1.0452784,0,0,0.0734441,0,0,0,327, 0.3, -0.2,0,0,1024,1024,1684,1024,0,0,100,0,0,0,0,100,,,,,,,0,,1.0452784,0,10,Assisted_Takeoff,
8200,2023-03-08 23:30:33,-23.5067221004155,152.091497159692,0,,,1.0452784,0.3,0,0.0765102,0.352839,16,5,0,1.0452784,0,0,0.0765102,0,0,0,327, 0.4, -0.4,0,0,1024,1024,1684,1024,0,0,100,0,0,0,0,100,,,,,,,0,,1.0452784,0,10,Assisted_Takeoff,
8300,2023-03-08 23:30:33,-23.5067220643849,152.091497129689,0,,,1.0452784,0.2,0,0.071513,0.35788,16,5,0,1.0452784,0,0,0.0765102,0,0,0,326.8, 0.9, -0.4,0,0,1024,1024,1684,1024,0,0,100,0,0,0,0,100,,,,,,,0,,1.0452784,0,10,Assisted_Takeoff,
8400,2023-03-08 23:30:33,-23.5067221070132,152.091497125203,0,,,1.0452784,0.3,0,0.075463,0.362643,16,5,0,1.0452784,0,0,0.0765102,0,0,-0.1,326, 2.7, -0.8,0,0,1024,1024,1684,1024,0,0,100,0,0,0,0,100,,,,,,,0,,1.0452784,0,10,Assisted_Takeoff,
8500,2023-03-08 23:30:33,-23.5067221587005,152.091497077834,0,,,1.0452784,0.3,0.1,0.0786461,0.370151,16,5,0,1.0452784,0,0.1,0.0786461,-0.1,0,-0.4,325.6, 3.3, -0.9,0,0,1024,1024,1684,1024,0,0,100,0,0,0,0,100,,,,,,,0,,1.0452784,0,6,P-GPS,
8600,2023-03-08 23:30:33,-23.5067223302889,152.091497061139,0.1,,,1.1452784,0.4,0.2,0.0960512,0.389309,16,5,0,1.1452784,0.1,0.2,0.0960512,-0.2,0,-0.8,325.4, 1.9, -0.1,0,0,1024,1024,1684,1024,0,0,100,0,0,0,0,100,,,,,,,0,,1.1452784,0.1,6,P-GPS,"Home Point recorded. Return-to-Home Altitude:50.0 m"
8700,2023-03-08 23:30:33,-23.5067226504595,152.09149701825,0.1,,,1.1452784,0.5,0.2,0.129628,0.425181,16,5,0,1.1452784,0.1,0.2,0.129628,-0.2,0,-1.1,325.3, 0.6, 1,0,0,1024,1024,1684,1024,0,0,100,0,0,0,0,100,,,,,,,0,,1.1452784,0.1,6,P-GPS,
8800,2023-03-08 23:30:33,-23.506722864597,152.091496989659,0.3,,,1.3452784,0.6,0.2,0.152671,0.449172,16,5,0,1.3452784,0.3,0.2,0.152671,-0.2,0,-1.5,325.3, -0.4, 2,0,0,1540,1024,1684,1024,78,0,100,0,0,0,0,100,,,,,,,0,,1.3452784,0.3,6,P-GPS,
8900,2023-03-08 23:30:33,-23.5067229714399,152.091496977631,0.4,,,1.4452784,0.8,0.1,0.164296,0.461117,16,5,0,1.4452784,0.4,0.2,0.164296,-0.1,0,-1.8,325.2, -1.3, 2.5,0,0,1684,1024,1684,1024,100,0,100,0,0,0,0,100,,,,,,,0,,1.4452784,0.4,6,P-GPS,
9000,2023-03-08 23:30:33,-23.5067231070401,152.091496952951,0.6,,,1.6452784,1,0.1,0.179017,0.476405,16,5,0,1.6452784,0.6,0.2,0.179017,-0.1,0,-2.2,325.2, -3, 1.6,0,0,1684,1024,1684,1024,100,0,100,0,0,0,0,100,,,,,,,0,,1.6452784,0.6,6,P-GPS,
9100,2023-03-08 23:30:34,-23.5067232596169,152.091496963333,0.9,,,1.9452784,1.2,0,0.196008,0.493406,16,5,0,1.9452784,0.9,0.2,0.196008,0,0,-2.5,325.2, -10.7, 0.9,0,0,1684,1024,1684,1024,100,0,100,0,0,0,0,100,,,,,,,0,,1.9452784,0.9,6,P-GPS,
9200,2023-03-08 23:30:34,-23.5067231811911,152.091496768236,1.2,,,2.2452784,1.5,0.28,0.186442,0.515129,16,5,0,2.2452784,1.2,0.28,0.196008,0.2,-0.2,-2.9,325.2, -18.4, 0.9,0,0,1684,1024,1684,1024,100,0,100,0,0,0,0,100,,,,,,,0,,2.2452784,1.2,6,P-GPS,
9300,2023-03-08 23:30:34,-23.5067227399067,152.091496209583,1.5,,,2.5452784,1.8,0.71,0.149344,0.59032,16,5,0,2.5452784,1.5,0.71,0.196008,0.5,-0.5,-3.3,325.1, -21.6, 1.5,0,0,1684,1024,1684,1024,100,0,100,0,0,0,0,100,,,,,,,0,,2.5452784,1.5,6,P-GPS,
9400,2023-03-08 23:30:34,-23.5067219061795,152.091495413639,1.8,,,2.8452784,2.1,1.35,0.146737,0.713546,16,5,0,2.8452784,1.8,1.35,0.196008,1,-0.9,-3.7,325, -22.2, 2.3,0,0,1684,1024,1684,1024,100,0,100,0,0,0,0,100,,,,,,,0,,2.8452784,1.8,6,P-GPS,
9500,2023-03-08 23:30:34,-23.5067206524594,152.091494167727,2.2,,,3.2452784,2.5,1.92,0.283166,0.902176,16,5,0,3.2452784,2.2,1.92,0.283166,1.5,-1.2,-4.1,325, -20.9, 2.5,0,0,1684,1024,1684,1024,100,0,100,0,0,0,0,100,,,,,,,0,,3.2452784,2.2,6,P-GPS,
9600,2023-03-08 23:30:34,-23.5067190262616,152.09149282669,2.6,,,3.6452784,3,2.36,0.488723,1.12891,16,5,0,3.6452784,2.6,2.36,0.488723,1.9,-1.4,-4.4,325, -19.8, 2.3,0,0,1684,1024,1684,1024,100,0,100,0,0,0,0,100,,,,,,,0,,3.6452784,2.6,6,P-GPS,
9700,2023-03-08 23:30:34,-23.5067166982236,152.09149100984,3.1,,,4.1452784,3.4,2.72,0.795278,1.44727,16,5,0,4.1452784,3.1,2.72,0.795278,2.2,-1.6,-4.6,325.2, -19.7, 2.2,0,0,1684,1024,1684,1024,100,0,100,0,0,0,0,100,,,,,,,0,,4.1452784,3.1,6,P-GPS,
9800,2023-03-08 23:30:34,-23.506714368691,152.091489179967,3.5,,,4.5452784,3.9,3.22,1.10955,1.76653,16,5,0,4.5452784,3.5,3.22,1.10955,2.6,-1.9,-4.8,325.4, -20.2, 2.2,0,0,1684,1024,1684,1032,100,0,100,1,0,0,0,100,,,,,,,0,,4.5452784,3.5,6,P-GPS,
9900,2023-03-08 23:30:34,-23.5067115086165,152.091487095975,4,,,5.0452784,4.4,3.58,1.48723,2.14906,16,5,0,5.0452784,4,3.58,1.48723,2.9,-2.1,-4.9,325.4, -20.9, 2.2,0,0,1684,1024,1684,1029,100,0,100,1,0,0,0,100,,,,,,,0,,5.0452784,4,6,P-GPS,
10000,2023-03-08 23:30:34,-23.5067085508406,152.091484836745,4.5,,,5.5452784,4.9,3.94,1.8867,2.55064,16,5,0,5.5452784,4.5,3.94,1.8867,3.2,-2.3,-4.9,325.5, -21.1, 2.2,0,0,1684,1024,1684,1024,100,0,100,0,0,0,0,100,,,,,,,0,,5.5452784,4.5,6,P-GPS,
10100,2023-03-08 23:30:35,-23.5067053544183,152.091482278467,5,,,6.0452784,5.4,4.3,2.32678,2.99157,16,5,0,6.0452784,5,4.3,2.32678,3.5,-2.5,-5,325.4, -21.4, 2.2,0,0,1684,1024,1684,1024,100,0,100,0,0,0,0,100,,,,,,,0,,6.0452784,5,6,P-GPS,
10200,2023-03-08 23:30:35,-23.5067018048762,152.091479592951,5.5,,,6.5452784,5.9,4.8,2.80586,3.472,16,5,0,6.5452784,5.5,4.8,2.80586,3.9,-2.8,-5,325.3, -21.7, 1.9,0,0,1684,1024,1684,1024,100,0,100,0,0,0,0,100,,,,,,,0,,6.5452784,5.5,6,P-GPS,
10300,2023-03-08 23:30:35,-23.5066980866977,152.091476814193,6,,,7.0452784,6.4,5.16,3.30596,3.97327,16,5,0,7.0452784,6,5.16,3.30596,4.2,-3,-5,325.3, -21.3, 1.8,0,0,1684,1024,1684,1024,100,0,100,0,0,0,0,100,,,,,,,0,,7.0452784,6,6,P-GPS,
10400,2023-03-08 23:30:35,-23.5066939626937,152.091473692906,6.5,,,7.5452784,6.9,5.16,3.86343,4.53152,16,5,0,7.5452784,6.5,5.16,3.86343,4.5,-3.2,-5,325.4, -20.4, 2.3,0,0,1684,1024,1684,1029,100,0,100,1,0,0,0,100,,,,,,,0,,7.5452784,6.5,6,P-GPS,
10500,2023-03-08 23:30:35,-23.5066891200946,152.091470207158,7,,,8.0452784,7.5,5.88,4.50726,5.17678,16,5,0,8.0452784,7,5.88,4.50726,4.8,-3.4,-5,325.5, -20.2, 2.7,0,0,1684,1024,1684,1026,100,0,100,0,0,0,0,100,,,,,,,0,,8.0452784,7,6,P-GPS,
10600,2023-03-08 23:30:35,-23.5066844343001,152.091466715931,7.5,,,8.5452784,8,6.16,5.13778,5.80788,16,5,0,8.5452784,7.5,6.16,5.13778,5,-3.6,-5,325.6, -20.7, 2.8,0,0,1684,1024,1684,1024,100,0,100,0,0,0,0,100,,,,,,,0,,8.5452784,7.5,6,P-GPS,
10700,2023-03-08 23:30:35,-23.5066795183296,152.091462852345,8,,,9.0452784,8.6,6.6,5.81159,6.48175,16,5,0,9.0452784,8,6.6,5.81159,5.4,-3.8,-4.9,325.7, -20.9, 2.8,0,0,1684,1024,1684,1025,100,0,100,0,0,0,0,100,,,,,,,0,,9.0452784,8,6,P-GPS,
10800,2023-03-08 23:30:35,-23.5066743064022,152.09145899183,8.5,,,9.5452784,9.1,6.91,6.51172,7.18241,16,5,0,9.5452784,8.5,6.91,6.51172,5.7,-3.9,-4.9,325.7, -20.3, 2.5,0,0,1684,1024,1684,1024,100,0,100,0,0,0,0,100,,,,,,,0,,9.5452784,8.5,6,P-GPS,
10900,2023-03-08 23:30:35,-23.5066688536889,152.091454867758,9,,,10.0452784,9.6,7.27,7.24942,7.92036,16,5,0,10.0452784,9,7.27,7.24942,6,-4.1,-4.9,325.8, -19.3, 2.2,0,0,1684,1024,1684,1024,100,0,100,0,0,0,0,100,,,,,,,0,,10.0452784,9,6,P-GPS,
11000,2023-03-08 23:30:35,-23.5066631741493,152.09145066299,9.5,,,10.5452784,10.1,7.63,8.01242,8.68376,16,5,0,10.5452784,9.5,7.63,8.01242,6.3,-4.3,-4.9,326, -18.8, 2,0,0,1684,1024,1684,1024,100,0,100,0,0,0,0,100,,,,,,,0,,10.5452784,9.5,6,P-GPS,
11100,2023-03-08 23:30:35,-23.5066571090342,152.091446278999,10,,,11.0452784,10.6,7.85,8.82096,9.49295,16,5,0,11.0452784,10,7.85,8.82096,6.5,-4.4,-4.9,326, -18.6, 2,0,0,1684,1024,1684,1024,100,0,100,0,0,0,0,100,,,,,,,0,,11.0452784,10,6,P-GPS,
11200,2023-03-08 23:30:36,-23.5066510006948,152.091441760674,10.5,,,11.5452784,11.2,8.21,9.64149,10.3138,16,5,0,11.5452784,10.5,8.21,9.64149,6.8,-4.6,-4.9,326, -18.6, 2,0,0,1684,1024,1684,1024,100,0,100,0,0,0,0,100,,,,,,,0,,11.5452784,10.5,6,P-GPS,
11300,2023-03-08 23:30:36,-23.5066451820327,152.091437385845,11,,,12.0452784,11.7,8.43,10.4273,11.0997,16,5,0,12.0452784,11,8.43,10.4273,7,-4.7,-4.9,326, -18.6, 1.9,0,0,1684,1024,1684,1024,100,0,100,0,0,0,0,100,,,,,,,0,,12.0452784,11,6,P-GPS,
11400,2023-03-08 23:30:36,-23.506638720308,152.091432597363,11.5,,,12.5452784,12.2,8.71,11.2959,11.9685,16,5,0,12.5452784,11.5,8.71,11.2959,7.2,-4.9,-4.9,325.9, -18.6, 1.7,0,0,1684,1024,1684,1026,100,0,100,0,0,0,0,100,,,,,,,0,,12.5452784,11.5,6,P-GPS,
11500,2023-03-08 23:30:36,-23.5066314295201,152.091427172635,12,,,13.0452784,12.2,9.01,12.2773,12.9501,16,5,0,13.0452784,12,9.01,12.2773,7.5,-5,-4.8,325.9, -18.4, 1.7,0,0,1684,1024,1684,1026,100,0,100,0,0,0,0,100,,,,,,,0,,13.0452784,12,6,P-GPS,
11600,2023-03-08 23:30:36,-23.5066245369909,152.091422036689,12.4,,,13.4452784,12.2,9.29,13.2055,13.8784,16,5,0,13.4452784,12.4,9.29,13.2055,7.7,-5.2,-4.8,326, -18.2, 1.8,0,0,1684,1024,1684,1025,100,0,100,0,0,0,0,100,,,,,,,0,,13.4452784,12.4,6,P-GPS,
11700,2023-03-08 23:30:36,-23.506617470896,152.091416738636,12.9,,,13.9452784,12.2,9.51,14.159,14.832,16,5,0,13.9452784,12.9,9.51,14.159,7.9,-5.3,-4.9,326, -17.9, 1.9,0,0,1684,1024,1684,1025,100,0,100,0,0,0,0,100,,,,,,,0,,13.9452784,12.9,6,P-GPS,
11800,2023-03-08 23:30:36,-23.5066102179909,152.091411319645,13.4,,,14.4452784,12.2,9.73,15.1367,15.8097,16,5,0,14.4452784,13.4,9.73,15.1367,8.1,-5.4,-4.9,326, -17.7, 2,0,0,1684,1024,1684,1030,100,0,100,1,0,0,0,100,,,,,,,0,,14.4452784,13.4,6,P-GPS,
11900,2023-03-08 23:30:36,-23.5066027854547,152.091405760184,13.9,,,14.9452784,12.2,10.01,16.1389,16.812,16,5,0,14.9452784,13.9,10.01,16.1389,8.3,-5.6,-4.9,326, -17.5, 2,0,0,1684,1024,1684,1048,100,0,100,4,0,0,0,100,,,,,,,0,,14.9452784,13.9,6,P-GPS,
12000,2023-03-08 23:30:36,-23.506595196007,152.091400084875,14.4,,,15.4452784,12.2,10.15,17.1622,17.8354,16,5,0,15.4452784,14.4,10.15,17.1622,8.4,-5.7,-4.9,326, -17.4, 2,0,0,1684,1024,1684,1050,100,0,100,4,0,0,0,100,,,,,,,0,,15.4452784,14.4,6,P-GPS,
12100,2023-03-08 23:30:37,-23.5065876518953,152.091394443945,14.9,,,15.9452784,12.2,10.37,18.1794,18.8526,16,5,0,15.9452784,14.9,10.37,18.1794,8.6,-5.8,-4.9,326, -17.3, 2,0,0,1684,1024,1684,1048,100,0,100,4,0,0,0,100,,,,,,,0,,15.9452784,14.9,6,P-GPS,
12200,2023-03-08 23:30:37,-23.5065797718406,152.091388548329,15.4,,,16.4452784,12.2,10.59,19.242,19.9153,16,5,0,16.4452784,15.4,10.59,19.242,8.8,-5.9,-4.9,326.1, -17.2, 2.4,0,0,1684,1024,1684,1048,100,0,100,4,0,0,0,100,,,,,,,0,,16.4452784,15.4,6,P-GPS,
12300,2023-03-08 23:30:37,-23.5065717726201,152.091382434768,15.9,,,16.9452784,12.2,10.82,20.3283,21.0016,16,5,0,16.9452784,15.9,10.82,20.3283,9,-6,-4.9,326.2, -17.3, 2.8,0,0,1684,1024,1684,1045,100,0,100,3,0,0,0,100,,,,,,,0,,16.9452784,15.9,6,P-GPS,
12400,2023-03-08 23:30:37,-23.5065635989259,152.09137635469,16.4,,,17.4452784,12.2,10.96,21.4285,22.1019,16,5,0,17.4452784,16.4,10.96,21.4285,9.1,-6.1,-4.9,326.2, -17.2, 2.8,0,0,1684,1024,1684,1038,100,0,100,2,0,0,0,100,,,,,,,0,,17.4452784,16.4,6,P-GPS,
12500,2023-03-08 23:30:37,-23.5065552285694,152.091370431103,16.9,,,17.9452784,12.2,11.18,22.5376,23.2116,16,5,0,17.9452784,16.9,11.18,22.5376,9.3,-6.2,-4.9,326.1, -17.2, 2,0,0,1684,1024,1684,1038,100,0,100,2,0,0,0,100,,,,,,,0,,17.9452784,16.9,6,P-GPS,
12600,2023-03-08 23:30:37,-23.5065467625206,152.091364220066,17.4,,,18.4452784,12.2,11.32,23.6721,24.3463,16,5,0,18.4452784,17.4,11.32,23.6721,9.4,-6.3,-4.9,326.2, -17.3, 1.1,0,0,1684,1024,1684,1038,100,0,100,2,0,0,0,100,,,,,,,0,,18.4452784,17.4,6,P-GPS,
12700,2023-03-08 23:30:37,-23.5065382737694,152.091357850454,17.9,,,18.9452784,12.2,11.32,24.818,25.4922,16,5,0,18.9452784,17.9,11.32,24.818,9.6,-6.4,-4.9,326.2, -17.5, 0.8,0,0,1684,1024,1684,1038,100,0,100,2,0,0,0,100,,,,,,,0,,18.9452784,17.9,6,P-GPS,
12800,2023-03-08 23:30:37,-23.506529565551,152.091351449005,18.4,,,19.4452784,12.2,11.68,25.9858,26.6601,16,5,0,19.4452784,18.4,11.68,25.9858,9.7,-6.5,-4.9,326.3, -17.6, 0.9,0,0,1684,1024,1684,1031,100,0,100,1,0,0,0,100,,,,,,,0,,19.4452784,18.4,6,P-GPS,
12900,2023-03-08 23:30:37,-23.506520854574,152.091345108868,19,,,20.0452784,12.2,11.76,27.1503,27.8247,16,5,0,20.0452784,19,11.76,27.1503,9.8,-6.5,-4.9,326.3, -17.7, 1.1,0,0,1684,1024,1684,1024,100,0,100,0,0,0,0,100,,,,,,,0,,20.0452784,19,6,P-GPS,
13000,2023-03-08 23:30:37,-23.5065119086922,152.091338535447,19.5,,,20.5452784,12.2,11.76,28.3498,29.0243,16,5,0,20.5452784,19.5,11.76,28.3498,10,-6.6,-4.9,326.3, -17.5, 1.3,0,0,1684,1024,1684,1024,100,0,100,0,0,0,0,100,,,,,,,0,,20.5452784,19.5,6,P-GPS,
13100,2023-03-08 23:30:38,-23.5065028638454,152.091331878208,20,,,21.0452784,12.2,12.12,29.5632,30.2379,16,5,0,21.0452784,20,12.12,29.5632,10.1,-6.7,-4.9,326.3, -17.3, 1.3,0,0,1684,1024,1684,1024,100,0,100,0,0,0,0,100,,,,,,,0,,21.0452784,20,6,P-GPS,
13200,2023-03-08 23:30:38,-23.5064936711337,152.091325138347,20.5,,,21.5452784,12.2,12.26,30.7949,31.4697,16,5,0,21.5452784,20.5,12.26,30.7949,10.2,-6.8,-4.9,326.3, -17.2, 1.2,0,0,1684,1024,1684,1024,100,0,100,0,0,0,0,100,,,,,,,0,,21.5452784,20.5,6,P-GPS,
13300,2023-03-08 23:30:38,-23.5064852102078,152.091318925077,21,,,22.0452784,12.2,12.4,31.9292,32.6041,16,5,0,22.0452784,21,12.4,31.9292,10.3,-6.9,-4.9,326.4, -17.1, 1.2,0,0,1684,1024,1684,1024,100,0,100,0,0,0,0,100,,,,,,,0,,22.0452784,21,6,P-GPS,
13400,2023-03-08 23:30:38,-23.5064758589053,152.09131208687,21.5,,,22.5452784,12.2,12.62,33.1812,33.8562,16,5,0,22.5452784,21.5,12.62,33.1812,10.5,-7,-4.9,326.3, -17, 1.2,0,0,1684,1024,1684,1024,100,0,100,0,0,0,0,100,,,,,,,0,,22.5452784,21.5,6,P-GPS,
13500,2023-03-08 23:30:38,-23.5064661917749,152.091305065146,22,,,23.0452784,12.2,12.62,34.4727,35.1478,16,5,0,23.0452784,22,12.62,34.4727,10.6,-7,-5,326.3, -17, 1.4,0,0,1684,1024,1684,1024,100,0,100,0,0,0,0,100,,,,,,,0,,23.0452784,22,6,P-GPS,
13600,2023-03-08 23:30:38,-23.5064566069211,152.09129806999,22.5,,,23.5452784,12.2,12.84,35.7552,36.4304,16,5,0,23.5452784,22.5,12.84,35.7552,10.7,-7.1,-5,326.2, -16.9, 1.4,0,0,1684,1024,1684,1024,100,0,100,0,0,0,0,100,,,,,,,0,,23.5452784,22.5,6,P-GPS,
13700,2023-03-08 23:30:38,-23.5064467247611,152.091291108298,23,,,24.0452784,12.2,12.98,37.063,37.7387,16,5,0,24.0452784,23,12.98,37.063,10.8,-7.2,-5,326.3, -16.8, 1.2,0,0,1684,1024,1684,1024,100,0,100,0,0,0,0,100,,,,,,,0,,24.0452784,23,6,P-GPS,
13800,2023-03-08 23:30:38,-23.5064369091489,152.091283981007,23.5,,,24.5452784,12.2,13.15,38.3743,39.0501,16,5,0,24.5452784,23.5,13.15,38.3743,11,-7.2,-5,326.3, -16.7, 1,0,0,1684,1024,1684,1024,100,0,100,0,0,0,0,100,,,,,,,0,,24.5452784,23.5,6,P-GPS,
13900,2023-03-08 23:30:38,-23.5064269424506,152.091276693515,24,,,25.0452784,12.2,13.29,39.7086,40.3846,16,5,0,25.0452784,24,13.29,39.7086,11.1,-7.3,-5,326.3, -16.5, 0.9,0,0,1684,1024,1684,1024,100,0,100,0,0,0,0,100,,,,,,,0,,25.0452784,24,6,P-GPS,
14000,2023-03-08 23:30:38,-23.5064169360874,152.091269406659,24.5,,,25.5452784,12.2,13.34,41.0466,41.7227,16,5,0,25.5452784,24.5,13.34,41.0466,11.1,-7.4,-5,326.4, -16.4, 1,0,0,1684,1024,1684,1024,100,0,100,0,0,0,0,100,,,,,,,0,,25.5452784,24.5,6,P-GPS,
14100,2023-03-08 23:30:39,-23.5064068763695,152.091261981071,25,,,26.0452784,12.2,13.48,42.3975,43.0736,16,5,0,26.0452784,25,13.48,42.3975,11.2,-7.5,-5,326.4, -16.5, 1,0,0,1684,1024,1684,1024,100,0,100,0,0,0,0,100,,,,,,,0,,26.0452784,25,6,P-GPS,
14200,2023-03-08 23:30:39,-23.5063967170013,152.091254564265,25.5,,,26.5452784,12.2,13.56,43.757,44.4331,16,5,0,26.5452784,25.5,13.56,43.757,11.3,-7.5,-4.9,326.3, -16.5, 1.2,0,0,1684,1024,1684,1024,100,0,100,0,0,0,0,100,,,,,,,0,,26.5452784,25.5,6,P-GPS,
14300,2023-03-08 23:30:39,-23.5063863527124,152.091247016426,26,,,27.0452784,12.2,13.56,45.1429,45.8191,16,5,0,27.0452784,26,13.56,45.1429,11.4,-7.6,-4.9,326.3, -16.3, 1.5,0,0,1684,1024,1684,1024,100,0,100,0,0,0,0,100,,,,,,,0,,27.0452784,26,6,P-GPS,
14400,2023-03-08 23:30:39,-23.5063760255696,152.091239502068,26.5,,,27.5452784,12.2,13.78,46.5234,47.1997,16,5,0,27.5452784,26.5,13.78,46.5234,11.5,-7.6,-4.9,326.3, -16.4, 1.6,0,0,1684,1024,1684,1024,100,0,100,0,0,0,0,100,,,,,,,0,,27.5452784,26.5,6,P-GPS,
14500,2023-03-08 23:30:39,-23.506365624443,152.091231880033,27,,,28.0452784,12.2,13.78,47.917,48.5933,16,5,0,28.0452784,27,13.78,47.917,11.6,-7.7,-4.9,326.3, -16.5, 1.6,0,0,1684,1024,1684,1024,100,0,100,0,0,0,0,100,,,,,,,0,,28.0452784,27,6,P-GPS,
14600,2023-03-08 23:30:39,-23.5063551318903,152.091224280904,27.5,,,28.5452784,12.2,14.01,49.3176,49.994,16,5,0,28.5452784,27.5,14.01,49.3176,11.7,-7.7,-4.9,326.3, -16.2, 1.1,0,0,1684,1024,1684,1024,100,0,100,0,0,0,0,100,,,,,,,0,,28.5452784,27.5,6,P-GPS,
14700,2023-03-08 23:30:39,-23.5063444135136,152.091216639157,28,,,29.0452784,12.2,14.09,50.7414,51.4181,16,5,0,29.0452784,28,14.09,50.7414,11.8,-7.7,-5,326.5, -16, 0.8,0,0,1684,1024,1684,1024,100,0,100,0,0,0,0,100,,,,,,,0,,29.0452784,28,6,P-GPS,
14800,2023-03-08 23:30:39,-23.5063337581895,152.09120894087,28.5,,,29.5452784,12.2,14.14,52.1627,52.8395,16,5,0,29.5452784,28.5,14.14,52.1627,11.8,-7.8,-5,326.5, -16.3, 0.6,0,0,1684,1024,1684,1024,100,0,100,0,0,0,0,100,,,,,,,0,,29.5452784,28.5,6,P-GPS,
14900,2023-03-08 23:30:39,-23.5063221404923,152.091200554793,29,,,30.0452784,12.2,14.23,53.7119,54.3889,16,5,0,30.0452784,29,14.23,53.7119,11.9,-7.8,-5,326.6, -16.6, 0.5,0,0,1684,1024,1684,1024,100,0,100,0,0,0,0,100,,,,,,,0,,30.0452784,29,6,P-GPS,
15000,2023-03-08 23:30:39,-23.5063112735311,152.091192706508,29.5,,,30.5452784,12.2,14.37,55.1613,55.8384,16,5,0,30.5452784,29.5,14.37,55.1613,12,-7.9,-4.9,326.5, -16.6, 0.7,0,0,1684,1024,1684,1024,100,0,100,0,0,0,0,100,,,,,,,0,,30.5452784,29.5,6,P-GPS,
15100,2023-03-08 23:30:39,-23.5063013574975,152.09118564564,30,,,31.0452784,12.2,14.45,56.4781,57.1553,16,5,0,31.0452784,30,14.45,56.4781,12.1,-7.9,-4.9,326.4, -16.5, 0.5,0,0,1684,1024,1684,1024,100,0,100,0,0,0,0,100,,,,,,,0,,31.0452784,30,6,P-GPS,
15200,2023-03-08 23:30:40,-23.5062904586673,152.091177760061,30.5,,,31.5452784,12.2,14.51,57.9325,58.6099,16,5,0,31.5452784,30.5,14.51,57.9325,12.1,-8,-4.9,326.3, -16.5, 0.6,0,0,1684,1024,1684,1024,100,0,100,0,0,0,0,100,,,,,,,0,,31.5452784,30.5,6,P-GPS,
15300,2023-03-08 23:30:40,-23.5062794650528,152.091169395601,31,,,32.0452784,12.2,14.64,59.4231,60.1006,16,5,0,32.0452784,31,14.64,59.4231,12.2,-8.1,-4.9,326.3, -16.3, 0.8,0,0,1684,1024,1684,1024,100,0,100,0,0,0,0,100,,,,,,,0,,32.0452784,31,6,P-GPS,
15400,2023-03-08 23:30:40,-23.5062684590677,152.091161372673,31.5,,,32.5452784,12.2,14.64,60.8953,61.5728,16,5,0,32.5452784,31.5,14.64,60.8953,12.2,-8.1,-4.9,326.3, -16.2, 1,0,0,1684,1024,1684,1024,100,0,100,0,0,0,0,100,,,,,,,0,,32.5452784,31.5,6,P-GPS,
15500,2023-03-08 23:30:40,-23.5062572980214,152.091153257706,32,,,33.0452784,12.2,14.78,62.387,63.0646,16,5,0,33.0452784,32,14.78,62.387,12.3,-8.2,-4.9,326.3, -16.1, 1.1,0,0,1684,1024,1684,1024,100,0,100,0,0,0,0,100,,,,,,,0,,33.0452784,32,6,P-GPS,
15600,2023-03-08 23:30:40,-23.5062461811118,152.091145140347,32.5,,,33.5452784,12.2,14.78,63.8748,64.5524,16,5,0,33.5452784,32.5,14.78,63.8748,12.3,-8.2,-4.9,326.3, -16, 1.4,0,0,1684,1024,1684,1024,100,0,100,0,0,0,0,100,,,,,,,0,,33.5452784,32.5,6,P-GPS,
15700,2023-03-08 23:30:40,-23.5062348219984,152.091137129378,33,,,34.0452784,12.2,14.87,65.3788,66.0567,16,5,0,34.0452784,33,14.87,65.3788,12.4,-8.2,-4.9,326.3, -16.1, 1.5,0,0,1684,1024,1684,1024,100,0,100,0,0,0,0,100,,,,,,,0,,34.0452784,33,6,P-GPS,
15800,2023-03-08 23:30:40,-23.5062235925196,152.091128953873,33.5,,,34.5452784,12.2,15,66.8803,67.5582,15,5,0,34.5452784,33.5,15,66.8803,12.5,-8.3,-4.9,326.3, -16.1, 1.4,0,0,1684,1024,1684,1024,100,0,100,0,0,0,0,100,,,,,,,0,,34.5452784,33.5,6,P-GPS,
15900,2023-03-08 23:30:40,-23.5062123084181,152.091120692346,34,,,35.0452784,12.2,15,68.3917,69.0697,15,5,0,35.0452784,34,15,68.3917,12.5,-8.3,-4.9,326.2, -16, 1.3,0,0,1684,1024,1684,1024,100,0,100,0,0,0,0,100,,,,,,,0,,35.0452784,34,6,P-GPS,
16000,2023-03-08 23:30:40,-23.5062009780553,152.091112430968,34.5,,,35.5452784,12.2,15.14,69.9074,70.5854,15,5,0,35.5452784,34.5,15.14,69.9074,12.6,-8.4,-4.9,326.1, -15.9, 1.3,0,0,1614,1024,1629,1024,89,0,92,0,0,0,0,100,,,,,,,0,,35.5452784,34.5,6,P-GPS,
16100,2023-03-08 23:30:41,-23.5061887205808,152.091103559246,35,,,36.0452784,12.2,15.14,71.5433,72.2214,15,5,0,36.0452784,35,15.14,71.5433,12.6,-8.4,-4.9,326.1, -15.7, 1.6,0,0,1509,1024,1466,1024,73,0,67,0,0,0,0,100,,,,,,,0,,36.0452784,35,6,P-GPS,
16200,2023-03-08 23:30:41,-23.5061772213127,152.091095174289,35.5,,,36.5452784,12.2,15.14,73.0816,73.7598,15,5,0,36.5452784,35.5,15.14,73.0816,12.6,-8.4,-4.8,326.2, -15, 1.7,0,0,1400,1024,1336,1024,57,0,47,0,0,0,0,100,,,,,,,0,,36.5452784,35.5,6,P-GPS,
16300,2023-03-08 23:30:41,-23.5061668542481,152.091087570004,36,,,37.0452784,12.2,15.14,74.4711,75.1492,15,5,0,37.0452784,36,15.14,74.4711,12.6,-8.4,-4.6,326.4, -13.6, 1.8,0,0,1178,1024,1147,1024,23,0,19,0,0,0,0,100,,,,,,,0,,37.0452784,36,6,P-GPS,
16400,2023-03-08 23:30:41,-23.5061554671723,152.091079278357,36.4,,,37.4452784,12.2,15.14,75.9937,76.6719,14,5,0,37.4452784,36.4,15.14,75.9937,12.6,-8.4,-4.3,326.6, -9.8, 1.8,0,0,1117,1024,1099,1024,14,0,11,0,0,0,0,100,,,,,,,0,,37.4452784,36.4,6,P-GPS,
16500,2023-03-08 23:30:41,-23.5061441047007,152.091071252851,36.8,,,37.8452784,12.2,15,77.4989,78.1773,14,5,0,37.8452784,36.8,15.14,77.4989,12.5,-8.3,-4,326.7, -4.4, 1.8,0,0,1048,1024,1084,1024,4,0,9,0,0,0,0,99,,,,,,,0,,37.8452784,36.8,6,P-GPS,
16600,2023-03-08 23:30:41,-23.5061328699789,152.091063116957,37.2,,,38.2452784,12.2,14.87,78.9986,79.6771,16,5,0,38.2452784,37.2,15.14,78.9986,12.4,-8.2,-3.7,326.8, 0.6, 1.6,0,0,1024,1024,1081,1024,0,0,9,0,0,0,0,99,,,,,,,0,,38.2452784,37.2,6,P-GPS,
16700,2023-03-08 23:30:41,-23.5061208363409,152.091054581741,37.6,,,38.6452784,12.2,14.87,80.5947,81.2735,16,5,0,38.6452784,37.6,15.14,80.5947,12.2,-8.1,-3.4,326.8, 5.6, 1.2,0,0,1024,1024,1081,1024,0,0,9,0,0,0,0,99,,,,,,,0,,38.6452784,37.6,6,P-GPS,
16800,2023-03-08 23:30:41,-23.5061098375862,152.091046647564,37.9,,,38.9452784,12.2,14.37,82.0612,82.74,15,5,0,38.9452784,37.9,15.14,82.0612,12,-7.9,-3,326.5, 17.4, 0,0,0,1024,1024,1081,1024,0,0,9,0,0,0,0,99,,,,,,,0,,38.9452784,37.9,6,P-GPS,
16900,2023-03-08 23:30:41,-23.5061005054736,152.091039940615,38.2,,,39.2452784,12.2,14.37,83.304,83.9829,15,5,0,39.2452784,38.2,15.14,83.304,11.6,-7.7,-2.7,326.6, 20.5, -0.4,0,0,1024,1024,1081,1024,0,0,9,0,0,0,0,99,,,,,,,0,,39.2452784,38.2,6,P-GPS,
17000,2023-03-08 23:30:41,-23.5060902473117,152.091032500827,38.4,,,39.4452784,12.2,13.56,84.674,85.3529,15,5,0,39.4452784,38.4,15.14,84.674,11.3,-7.5,-2.3,326.8, 22.4, 0,0,0,1024,1024,1079,1024,0,0,8,0,0,0,0,99,,,,,,,0,,39.4452784,38.4,6,P-GPS,
17100,2023-03-08 23:30:41,-23.5060793671917,152.091024777635,38.6,,,39.6452784,12.2,13.56,86.1175,86.7966,15,5,0,39.6452784,38.6,15.14,86.1175,11,-7.2,-1.9,326.9, 22.3, 0.1,0,0,1024,1024,1057,1024,0,0,5,0,0,0,0,99,,,,,,,0,,39.6452784,38.6,6,P-GPS,
17200,2023-03-08 23:30:42,-23.5060696115994,152.091017683956,38.8,,,39.8452784,12.2,12.84,87.4215,88.1006,15,5,0,39.8452784,38.8,15.14,87.4215,10.7,-7.1,-1.5,327.1, 22.4, 0.5,0,0,1024,1024,1024,1024,0,0,0,0,0,0,0,99,,,,,,,0,,39.8452784,38.8,6,P-GPS,
17300,2023-03-08 23:30:42,-23.5060615730225,152.091011352863,38.9,,,39.9452784,12.2,12.84,88.5236,89.2033,15,5,0,39.9452784,38.9,15.14,88.5236,10.4,-6.9,-1,327.1, 22.5, 0.5,0,0,1024,1024,1024,1024,0,0,0,0,0,0,0,99,,,,,,,0,,39.9452784,38.9,6,P-GPS,
17400,2023-03-08 23:30:42,-23.5060524748895,152.091004677117,38.9,,,39.9452784,12.2,12.12,89.7431,90.4227,16,5,0,39.9452784,38.9,15.14,89.7431,10.1,-6.7,-0.7,327, 23.3, 0.4,0,0,1024,1024,1024,1024,0,0,0,0,0,0,0,99,,,,,,,0,,39.9452784,38.9,6,P-GPS,
17500,2023-03-08 23:30:42,-23.5060439530701,152.090998066692,39,,,40.0452784,12.2,11.68,90.9057,91.5857,16,5,0,40.0452784,39,15.14,90.9057,9.7,-6.5,-0.4,327, 24.3, 0.3,0,0,1024,1024,1024,1024,0,0,0,0,0,0,0,99,,,,,,,0,,40.0452784,39,6,P-GPS,
17600,2023-03-08 23:30:42,-23.5060355224711,152.090991821285,39,,,40.0452784,12.2,11.18,92.0391,92.7191,16,5,0,40.0452784,39,15.14,92.0391,9.3,-6.2,-0.2,326.9, 25.4, 0.2,0,0,1024,1024,1024,1024,0,0,0,0,0,0,0,99,,,,,,,0,,40.0452784,39,6,P-GPS,
17700,2023-03-08 23:30:42,-23.5060272720516,152.090986059056,39,,,40.0452784,12.2,10.76,93.1283,93.8087,16,5,0,40.0452784,39,15.14,93.1283,9,-5.9,0,326.9, 26.5, 0.2,0,0,1024,1024,1024,1024,0,0,0,0,0,0,0,99,,,,,,,0,,40.0452784,39,6,P-GPS,
17800,2023-03-08 23:30:42,-23.5060195926684,152.090980353628,39,,,40.0452784,12.2,10.18,94.1617,94.842,16,5,0,40.0452784,39,15.14,94.1617,8.5,-5.6,0,326.8, 27.6, 0.2,0,0,1024,1024,1024,1024,0,0,0,0,0,0,0,99,,,,,,,0,,40.0452784,39,6,P-GPS,
17900,2023-03-08 23:30:42,-23.5060122065478,152.090975017665,38.9,,,39.9452784,12.2,9.68,95.1469,95.8273,16,5,0,40.0452784,39,15.14,95.1469,8.1,-5.3,0,326.8, 28.6, 0.3,0,0,1024,1024,1024,1024,0,0,0,0,0,0,0,99,,,,,,,0,,39.9452784,38.9,6,P-GPS,
18000,2023-03-08 23:30:42,-23.506005381663,152.090969908007,38.9,,,39.9452784,12.2,9.1,96.0675,96.7479,16,5,0,40.0452784,39,15.14,96.0675,7.6,-5,0.1,326.9, 29.3, 0.6,0,0,1024,1024,1024,1024,0,0,0,0,0,0,0,99,,,,,,,0,,39.9452784,38.9,6,P-GPS,
18100,2023-03-08 23:30:42,-23.505998383521,152.090964534862,38.9,,,39.9452784,12.2,8.51,97.0191,97.6997,16,5,0,40.0452784,39,15.14,97.0191,7.1,-4.7,0.1,327, 29.5, 1,0,0,1024,1024,1024,1024,0,0,0,0,0,0,0,99,,,,,,,0,,39.9452784,38.9,6,P-GPS,
18200,2023-03-08 23:30:43,-23.5059924301999,152.090960022657,38.9,,,39.9452784,12.2,7.93,97.8253,98.506,16,5,0,40.0452784,39,15.14,97.8253,6.6,-4.4,0.1,327, 29.4, 1.1,0,0,1024,1024,1024,1024,0,0,0,0,0,0,0,99,,,,,,,0,,39.9452784,38.9,6,P-GPS,
18300,2023-03-08 23:30:43,-23.5059875933194,152.09095622057,38.9,,,39.9452784,12.2,7.29,98.488,99.169,16,5,0,40.0452784,39,15.14,98.488,6.1,-4,0.1,326.9, 29, 0.7,0,0,1024,1024,1024,1024,0,0,0,0,0,0,0,99,,,,,,,0,,39.9452784,38.9,6,P-GPS,
18400,2023-03-08 23:30:43,-23.5059826195737,152.090952399612,38.9,,,39.9452784,12.2,6.71,99.1645,99.8456,16,5,0,40.0452784,39,15.14,99.1645,5.6,-3.7,0.1,326.8, 28.4, 0.8,0,0,1024,1024,1024,1024,0,0,0,0,0,0,0,99,,,,,,,0,,39.9452784,38.9,6,P-GPS,
18500,2023-03-08 23:30:43,-23.5059781621047,152.090948715574,38.8,,,39.8452784,12.2,6.05,99.7856,100.468,16,5,0,40.0452784,39,15.14,99.7856,5,-3.4,0.1,326.7, 27.3, 1,0,0,1024,1024,1024,1024,0,0,0,0,0,0,0,99,,,,,,,0,,39.8452784,38.8,6,P-GPS,
18600,2023-03-08 23:30:43,-23.5059740835675,152.090945520057,38.8,,,39.8452784,12.2,5.55,100.344,101.026,16,5,0,40.0452784,39,15.14,100.344,4.6,-3.1,0.1,326.5, 25.7, 0.7,0,0,1024,1024,1024,1024,0,0,0,0,0,0,0,99,,,,,,,0,,39.8452784,38.8,6,P-GPS,
18700,2023-03-08 23:30:43,-23.5059699986565,152.090942563327,38.8,,,39.8452784,12.2,4.96,100.889,101.571,16,5,0,40.0452784,39,15.14,100.889,4.1,-2.8,0,326.4, 24, 0.1,0,0,1024,1024,1024,1024,0,0,0,0,0,0,0,99,,,,,,,0,,39.8452784,38.8,6,P-GPS,
18800,2023-03-08 23:30:43,-23.5059666795593,152.090939924045,38.8,,,39.8452784,12.2,4.47,101.346,102.028,16,5,0,40.0452784,39,15.14,101.346,3.7,-2.5,0,326.3, 22.8, 0,0,0,1024,1024,1024,1024,0,0,0,0,0,0,0,99,,,,,,,0,,39.8452784,38.8,6,P-GPS,
18900,2023-03-08 23:30:43,-23.5059631500586,152.090937338872,38.8,,,39.8452784,12.2,4.02,101.818,102.501,16,5,0,40.0452784,39,15.14,101.818,3.3,-2.3,0,326.4, 22.1, 0.3,0,0,1024,1024,1024,1024,0,0,0,0,0,0,0,99,,,,,,,0,,39.8452784,38.8,6,P-GPS,
19000,2023-03-08 23:30:43,-23.5059604739597,152.090935147903,38.8,,,39.8452784,12.2,3.58,102.19,102.873,16,5,0,40.0452784,39,15.14,102.19,2.9,-2.1,0,326.5, 21.5, 0.8,0,0,1024,1024,1024,1024,0,0,0,0,0,0,0,99,,,,,,,0,,39.8452784,38.8,6,P-GPS,
19100,2023-03-08 23:30:44,-23.5059581335469,152.090933056485,38.8,,,39.8452784,12.2,3.16,102.525,103.21,16,5,0,40.0452784,39,15.14,102.525,2.6,-1.8,0,326.6, 19.5, 0.9,0,0,1024,1024,1024,1024,0,0,0,0,0,0,0,99,,,,,,,0,,39.8452784,38.8,6,P-GPS,
19200,2023-03-08 23:30:44,-23.5059560474687,152.09093128924,38.8,,,39.8452784,12.2,2.8,102.818,103.503,16,5,0,40.0452784,39,15.14,102.818,2.3,-1.6,0,326.6, 17.1, 0.9,0,0,1024,1024,1024,1024,0,0,0,0,0,0,0,99,,,,,,,0,,39.8452784,38.8,6,P-GPS,
19300,2023-03-08 23:30:44,-23.5059542593135,152.090930203901,38.8,,,39.8452784,12.2,2.5,103.045,103.731,16,5,0,40.0452784,39,15.14,103.045,2,-1.5,0,326.7, 15.1, 0.9,0,0,1024,1024,1024,1024,0,0,0,0,0,0,0,99,,,,,,,0,,39.8452784,38.8,6,P-GPS,
19400,2023-03-08 23:30:44,-23.5059526112446,152.090928803731,38.9,,,39.9452784,12.2,2.22,103.277,103.963,16,5,0,40.0452784,39,15.14,103.277,1.8,-1.3,-0.1,326.7, 13.6, 0.8,0,0,1024,1024,1024,1024,0,0,0,0,0,0,0,99,,,,,,,0,,39.9452784,38.9,6,P-GPS,
19500,2023-03-08 23:30:44,-23.5059508385098,152.090927526279,38.9,,,39.9452784,12.2,2,103.513,104.2,16,5,0,40.0452784,39,15.14,103.513,1.6,-1.2,0,326.6, 12.6, 0.8,0,0,1024,1024,1024,1024,0,0,0,0,0,0,0,99,,,,,,,0,,39.9452784,38.9,6,P-GPS,
19600,2023-03-08 23:30:44,-23.5059494937097,152.090926366427,38.9,,,39.9452784,12.2,1.86,103.703,104.39,16,5,0,40.0452784,39,15.14,103.703,1.5,-1.1,0,326.7, 11.8, 0.8,0,0,1024,1024,1024,1024,0,0,0,0,0,0,0,99,,,,,,,0,,39.9452784,38.9,6,P-GPS,
19700,2023-03-08 23:30:44,-23.5059478620892,152.090925105081,38.9,,,39.9452784,12.2,1.64,103.926,104.613,16,5,0,40.0452784,39,15.14,103.926,1.3,-1,0,326.7, 11, 0.8,0,0,1024,1024,1024,1024,0,0,0,0,0,0,0,99,,,,,,,0,,39.9452784,38.9,6,P-GPS,
19800,2023-03-08 23:30:44,-23.5059467521596,152.09092412998,38.9,,,39.9452784,12.2,1.5,104.084,104.771,16,5,0,40.0452784,39,15.14,104.084,1.2,-0.9,0,326.7, 10.3, 0.8,0,0,1024,1024,1024,1024,0,0,0,0,0,0,0,99,,,,,,,0,,39.9452784,38.9,6,P-GPS,
19900,2023-03-08 23:30:44,-23.5059456675196,152.090923086531,38.9,,,39.9452784,12.2,1.35,104.243,104.932,16,5,0,40.0452784,39,15.14,104.243,1,-0.9,0,326.7, 9.7, 0.9,0,0,1024,1024,1024,1024,0,0,0,0,0,0,0,99,,,,,,,0,,39.9452784,38.9,6,P-GPS,
20000,2023-03-08 23:30:44,-23.5059447740245,152.090922264605,38.9,,,39.9452784,12.2,1.2,104.372,105.062,16,5,0,40.0452784,39,15.14,104.372,0.9,-0.8,0,326.7, 9, 1.1,0,0,1024,1024,1024,1024,0,0,0,0,0,0,0,99,,,,,,,0,,39.9452784,38.9,6,P-GPS,
20100,2023-03-08 23:30:45,-23.5059438824485,152.090921475825,38.9,,,39.9452784,12.2,1.06,104.5,105.19,16,5,0,40.0452784,39,15.14,104.5,0.8,-0.7,0,326.7, 8.3, 1.2,0,0,1024,1024,1024,1024,0,0,0,0,0,0,0,99,,,,,,,0,,39.9452784,38.9,6,P-GPS,
20200,2023-03-08 23:30:45,-23.5059431634444,152.0909207922,38.9,,,39.9452784,12.2,0.92,104.605,105.296,16,5,0,40.0452784,39,15.14,104.605,0.7,-0.6,0,326.7, 7.8, 1.1,0,0,1024,1024,1024,1024,0,0,0,0,0,0,0,99,,,,,,,0,,39.9452784,38.9,6,P-GPS,
20300,2023-03-08 23:30:45,-23.5059425033121,152.090920086379,39,,,40.0452784,12.2,0.85,104.706,105.399,16,5,0,40.0452784,39,15.14,104.706,0.6,-0.6,0,326.7, 7.3, 1.1,0,0,1024,1024,1024,1024,0,0,0,0,0,0,0,99,,,,,,,0,,40.0452784,39,6,P-GPS,
20400,2023-03-08 23:30:45,-23.5059419273413,152.090919514748,39,,,40.0452784,12.2,0.78,104.792,105.485,16,5,0,40.0452784,39,15.14,104.792,0.6,-0.5,0,326.7, 6.8, 1.1,0,0,1024,1024,1024,1024,0,0,0,0,0,0,0,99,,,,,,,0,,40.0452784,39,6,P-GPS,
20500,2023-03-08 23:30:45,-23.5059414292951,152.090918818344,39,,,40.0452784,12.2,0.71,104.878,105.575,16,5,0,40.0452784,39,15.14,104.878,0.5,-0.5,0,326.7, 6.4, 1,0,0,1024,1024,1024,1024,0,0,0,0,0,0,0,99,,,,,,,0,,40.0452784,39,6,P-GPS,
20600,2023-03-08 23:30:45,-23.5059409733295,152.090918324702,39,,,40.0452784,12.2,0.71,104.948,105.647,16,5,0,40.0452784,39,15.14,104.948,0.4,-0.4,0,326.6, 5.9, 1.1,0,0,1024,1024,1024,1024,0,0,0,0,0,0,0,99,,,,,,,0,,40.0452784,39,6,P-GPS,
20700,2023-03-08 23:30:45,-23.5059405081803,152.090917782294,39,,,40.0452784,12.2,0.57,105.022,105.722,16,5,0,40.0452784,39,15.14,105.022,0.4,-0.4,0,326.6, 5.5, 1.1,0,0,1024,1024,1024,1024,0,0,0,0,0,0,0,99,,,,,,,0,,40.0452784,39,6,P-GPS,
20800,2023-03-08 23:30:45,-23.5059401372671,152.090917356701,39,,,40.0452784,12.2,0.42,105.08,105.782,16,5,0,40.0452784,39,15.14,105.08,0.3,-0.3,0,326.6, 5.2, 1.1,0,0,1024,1024,1024,1024,0,0,0,0,0,0,0,99,,,,,,,0,,40.0452784,39,6,P-GPS,
20900,2023-03-08 23:30:45,-23.5059399586641,152.090916861677,39,,,40.0452784,12.2,0.42,105.125,105.837,16,5,0,40.0452784,39,15.14,105.125,0.3,-0.3,0,326.5, 5, 1.1,0,0,1024,1024,1024,1024,0,0,0,0,0,0,0,99,,,,,,,0,,40.0452784,39,6,P-GPS,
21000,2023-03-08 23:30:45,-23.5059396769839,152.090916487989,39,,,40.0452784,12.2,0.42,105.172,105.886,16,5,0,40.0452784,39,15.14,105.172,0.2,-0.3,0,326.5, 4.8, 1.2,0,0,1024,1024,1024,1024,0,0,0,0,0,0,0,99,,,,,,,0,,40.0452784,39,6,P-GPS,
21100,2023-03-08 23:30:46,-23.5059395117452,152.090916107089,39,,,40.0452784,12.2,0.28,105.209,105.929,16,5,0,40.0452784,39,15.14,105.209,0.2,-0.2,0,326.5, 4.5, 1.2,0,0,1024,1024,1024,1024,0,0,0,0,0,0,0,99,,,,,,,0,,40.0452784,39,6,P-GPS,
21200,2023-03-08 23:30:46,-23.5059392938714,152.090915784485,39,,,40.0452784,12.2,0.28,105.248,105.97,16,5,0,40.0452784,39,15.14,105.248,0.2,-0.2,0,326.5, 4.3, 1.2,0,0,1024,1024,1024,1024,0,0,0,0,0,0,0,99,,,,,,,0,,40.0452784,39,6,P-GPS,
21300,2023-03-08 23:30:46,-23.5059390503654,152.090915391103,39,,,40.0452784,12.2,0.28,105.293,106.018,16,5,0,40.0452784,39,15.14,105.293,0.1,-0.2,0,326.5, 4.6, 1.5,0,0,1024,1024,1024,1024,0,0,0,0,0,0,0,99,,,,,,,0,,40.0452784,39,6,P-GPS,
21400,2023-03-08 23:30:46,-23.5059388748464,152.090915109941,39,,,40.0452784,12.2,0.22,105.325,106.053,16,5,0,40.0452784,39,15.14,105.325,0.1,-0.2,0,326.6, 5, 1.8,0,0,1024,1024,1024,1024,0,0,0,0,0,0,0,99,,,,,,,0,,40.0452784,39,6,P-GPS,
21500,2023-03-08 23:30:46,-23.5059387702615,152.090914930234,39,,,40.0452784,12.2,0.14,105.345,106.074,16,5,0,40.0452784,39,15.14,105.345,0.1,-0.1,0,326.6, 4.8, 1.7,0,0,1024,1024,1024,1024,0,0,0,0,0,0,0,99,,,,,,,0,,40.0452784,39,6,P-GPS,
21600,2023-03-08 23:30:46,-23.5059386479945,152.090914727957,39,,,40.0452784,12.2,0.14,105.368,106.099,16,5,0,40.0452784,39,15.14,105.368,0.1,-0.1,0,326.7, 4.6, 1.3,0,0,1024,1024,1024,1024,0,0,0,0,0,0,0,99,,,,,,,0,,40.0452784,39,6,P-GPS,
21700,2023-03-08 23:30:46,-23.5059385747302,152.090914600118,39,,,40.0452784,12.2,0.1,105.382,106.115,16,5,0,40.0452784,39,15.14,105.382,0,-0.1,0,326.7, 4.1, 1,0,0,1024,1024,1024,1024,0,0,0,0,0,0,0,99,,,,,,,0,,40.0452784,39,6,P-GPS,
21800,2023-03-08 23:30:46,-23.5059385013974,152.090914442086,39,,,40.0452784,12.2,0,105.398,106.133,16,5,0,40.0452784,39,15.14,105.398,0,0,0,326.6, 3.9, 1,0,0,1024,1024,1024,1024,0,0,0,0,0,0,0,99,,,,,,,0,,40.0452784,39,6,P-GPS,
21900,2023-03-08 23:30:46,-23.5059384658276,152.090914474111,39.1,,,40.1452784,12.2,0,105.399,106.138,16,5,0,40.1452784,39.1,15.14,105.399,0,0,0,326.6, 3.6, 1.2,0,0,1024,1024,1024,1024,0,0,0,0,0,0,0,99,,,,,,,0,,40.1452784,39.1,6,P-GPS,
22000,2023-03-08 23:30:46,-23.5059384251862,152.09091435554,39.1,,,40.1452784,12.2,0,105.41,106.151,16,5,0,40.1452784,39.1,15.14,105.41,0,0,0,326.6, 3.4, 1.3,0,0,1024,1024,1024,1024,0,0,0,0,0,0,0,99,,,,,,,0,,40.1452784,39.1,6,P-GPS,
22100,2023-03-08 23:30:46,-23.5059385581447,152.09091431421,39.1,,,40.1452784,12.2,0,105.4,106.166,16,5,0,40.1452784,39.1,15.14,105.41,0,0,0,326.6, 3.2, 1.4,0,0,1024,1024,1024,1024,0,0,0,0,0,0,0,99,,,,,,,0,,40.1452784,39.1,6,P-GPS,
22200,2023-03-08 23:30:47,-23.5059385466308,152.090914224712,39.1,,,40.1452784,12.2,0,105.406,106.175,16,5,0,40.1452784,39.1,15.14,105.41,0,0,0,326.6, 3.2, 1.5,0,0,1024,1024,1024,1024,0,0,0,0,0,0,0,99,,,,,,,0,,40.1452784,39.1,6,P-GPS,
22300,2023-03-08 23:30:47,-23.5059385420389,152.090914405464,39.1,,,40.1452784,12.2,0,105.396,106.194,16,5,0,40.1452784,39.1,15.14,105.41,0,0,0,326.5, 2.9, 1.4,0,0,1024,1024,1024,1024,0,0,0,0,0,0,0,99,,,,,,,0,,40.1452784,39.1,6,P-GPS,
22400,2023-03-08 23:30:47,-23.5059385347056,152.090914358903,39.1,,,40.1452784,12.2,0,105.4,106.198,16,5,0,40.1452784,39.1,15.14,105.41,0,0,0,326.5, 2.9, 1.4,0,0,1024,1024,1024,1024,0,0,0,0,0,0,0,99,,,,,,,0,,40.1452784,39.1,6,P-GPS,
22500,2023-03-08 23:30:47,-23.5059384468433,152.090914277402,39.1,,,40.1452784,12.2,0,105.412,106.211,16,5,0,40.1452784,39.1,15.14,105.412,0,0,0,326.5, 2.8, 1.3,0,0,1024,1024,1024,1024,0,0,0,0,0,0,0,99,,,,,,,0,,40.1452784,39.1,6,P-GPS,
22600,2023-03-08 23:30:47,-23.5059384302578,152.090914239061,39.1,,,40.1452784,12.2,0,105.416,106.216,16,5,0,40.1452784,39.1,15.14,105.416,0,0,0,326.5, 2.9, 1.1,0,0,1024,1024,1024,1024,0,0,0,0,0,0,0,99,,,,,,,0,,40.1452784,39.1,6,P-GPS,
22700,2023-03-08 23:30:47,-23.5059384682949,152.090914247581,39.1,,,40.1452784,12.2,0,105.412,106.22,16,5,0,40.1452784,39.1,15.14,105.416,0,0,0,326.5, 2.9, 1.1,0,0,1024,1024,1024,1024,0,0,0,0,0,0,0,99,,,,,,,0,,40.1452784,39.1,6,P-GPS,
22800,2023-03-08 23:30:47,-23.5059384610301,152.090914219144,39.1,,,40.1452784,12.2,0,105.414,106.223,16,5,0,40.1452784,39.1,15.14,105.416,0,0,0,326.5, 3, 1.1,0,0,1024,1024,1024,1024,0,0,0,0,0,0,0,99,,,,,,,0,,40.1452784,39.1,6,P-GPS,
22900,2023-03-08 23:30:47,-23.5059384903633,152.090914176356,39.1,,,40.1452784,12.2,0,105.414,106.228,16,5,0,40.1452784,39.1,15.14,105.416,0,0,0,326.5, 2.9, 1.2,0,0,1024,1024,1024,1024,0,0,0,0,0,0,0,99,,,,,,,0,,40.1452784,39.1,6,P-GPS,
23000,2023-03-08 23:30:47,-23.5059384905689,152.090914154122,39.1,,,40.1452784,12.2,0,105.415,106.231,16,5,0,40.1452784,39.1,15.14,105.416,0,0,0,326.5, 3, 1.2,0,0,1024,1024,1024,1024,0,0,0,0,0,0,0,99,,,,,,,0,,40.1452784,39.1,6,P-GPS,
23100,2023-03-08 23:30:47,-23.5059386786298,152.090914243247,39.1,,,40.1452784,12.2,0,105.393,106.253,16,5,0,40.1452784,39.1,15.14,105.416,0,0,0,326.5, 2.8, 1.2,0,0,1024,1024,1024,1024,0,0,0,0,0,0,0,99,,,,,,,0,,40.1452784,39.1,6,P-GPS,
23200,2023-03-08 23:30:48,-23.5059386979568,152.090914238127,39.1,,,40.1452784,12.2,0,105.392,106.256,16,5,0,40.1452784,39.1,15.14,105.416,0,0,0,326.5, 2.7, 1.2,0,0,1024,1024,1024,1024,0,0,0,0,0,0,0,99,,,,,,,0,,40.1452784,39.1,6,P-GPS,
23300,2023-03-08 23:30:48,-23.5059388442111,152.090914139735,39.1,,,40.1452784,12.2,0,105.384,106.275,16,5,0,40.1452784,39.1,15.14,105.416,0,0,0,326.4, 2.6, 1.1,0,0,1024,1024,1024,1024,0,0,0,0,0,0,0,99,,,,,,,0,,40.1452784,39.1,6,P-GPS,
23400,2023-03-08 23:30:48,-23.5059388747094,152.090914130767,39.1,,,40.1452784,12.2,0,105.381,106.278,16,5,0,40.1452784,39.1,15.14,105.416,0,0,0,326.5, 2.7, 1.1,0,0,1024,1024,1024,1024,0,0,0,0,0,0,0,99,,,,,,,0,,40.1452784,39.1,6,P-GPS,
23500,2023-03-08 23:30:48,-23.5059389812818,152.090914338014,39.1,,,40.1452784,12.2,0,105.36,106.303,16,5,0,40.1452784,39.1,15.14,105.416,0,0,0,326.5, 2.6, 1.1,0,0,1024,1024,1024,1024,0,0,0,0,0,0,0,99,,,,,,,0,,40.1452784,39.1,6,P-GPS,
23600,2023-03-08 23:30:48,-23.5059390197301,152.090914351429,39.1,,,40.1452784,12.2,0,105.355,106.307,16,5,0,40.1452784,39.1,15.14,105.416,0,0,0,326.5, 2.6, 1.2,0,0,1024,1024,1024,1024,0,0,0,0,0,0,0,99,,,,,,,0,,40.1452784,39.1,6,P-GPS,
23700,2023-03-08 23:30:48,-23.5059391045083,152.090914351429,39.1,,,40.1452784,12.2,0,105.348,106.316,16,5,0,40.1452784,39.1,15.14,105.416,0,0,0,326.5, 2.4, 1.2,0,0,1024,1024,1024,1024,0,0,0,0,0,0,0,99,,,,,,,0,,40.1452784,39.1,6,P-GPS,
23800,2023-03-08 23:30:48,-23.5059391443273,152.090914369179,39.1,,,40.1452784,12.2,0,105.343,106.321,16,5,0,40.1452784,39.1,15.14,105.416,0,0,0,326.5, 2.3, 1.1,0,0,1024,1024,1024,1024,0,0,0,0,0,0,0,99,,,,,,,0,,40.1452784,39.1,6,P-GPS,
23900,2023-03-08 23:30:48,-23.5059392031306,152.090914355577,39,,,40.0452784,12.2,0,105.338,106.328,16,5,0,40.1452784,39.1,15.14,105.416,0,0,0,326.5, 2.2, 1.1,0,0,1024,1024,1024,1024,0,0,0,0,0,0,0,99,,,,,,,0,,40.0452784,39,6,P-GPS,
24000,2023-03-08 23:30:48,-23.5059392371927,152.090914364022,39,,,40.0452784,12.2,0,105.335,106.332,16,5,0,40.1452784,39.1,15.14,105.416,0,0,0,326.5, 2.2, 1,0,0,1024,1024,1024,1024,0,0,0,0,0,0,0,99,,,,,,,0,,40.0452784,39,6,P-GPS,
24100,2023-03-08 23:30:49,-23.5059391280845,152.090914331699,39,,,40.0452784,12.2,0,105.347,106.344,16,5,0,40.1452784,39.1,15.14,105.416,0,0,0,326.6, 2.3, 1,0,0,1024,1024,1024,1024,0,0,0,0,0,0,0,99,,,,,,,0,,40.0452784,39,6,P-GPS,
24200,2023-03-08 23:30:49,-23.5059391454239,152.090914327476,39,,,40.0452784,12.2,0,105.345,106.346,16,5,0,40.1452784,39.1,15.14,105.416,0,0,0,326.6, 2.6, 1,0,0,1024,1024,1024,1024,0,0,0,0,0,0,0,99,,,,,,,0,,40.0452784,39,6,P-GPS,
24300,2023-03-08 23:30:49,-23.5059390646893,152.090914285884,39,,,40.0452784,12.2,0,105.355,106.356,16,5,0,40.1452784,39.1,15.14,105.416,0,0,0,326.6, 2.5, 1.2,0,0,1024,1024,1024,1024,0,0,0,0,0,0,0,99,,,,,,,0,,40.0452784,39,6,P-GPS,
24400,2023-03-08 23:30:49,-23.5059390759291,152.090914276804,39,,,40.0452784,12.2,0,105.355,106.358,16,5,0,40.1452784,39.1,15.14,105.416,0,0,0,326.6, 2.4, 1.3,0,0,1024,1024,1024,1024,0,0,0,0,0,0,0,99,,,,,,,0,,40.0452784,39,6,P-GPS,
