time(millisecond),datetime(utc),latitude,longitude,height_above_takeoff(meters),height_above_ground_at_drone_location(meters),ground_elevation_at_drone_location(meters),altitude_above_seaLevel(meters),height_sonar(meters),speed(m/s),distance(meters),mileage(meters),satellites,gpslevel,voltage(v),max_altitude(meters),max_ascent(meters),max_speed(m/s),max_distance(meters), xSpeed(m/s), ySpeed(m/s), zSpeed(m/s), compass_heading(degrees), pitch(degrees), roll(degrees),isPhoto,isVideo,rc_elevator,rc_aileron,rc_throttle,rc_rudder,rc_elevator(percent),rc_aileron(percent),rc_throttle(percent),rc_rudder(percent),gimbal_heading(degrees),gimbal_pitch(degrees),gimbal_roll(degrees),battery_percent,voltageCell1,voltageCell2,voltageCell3,voltageCell4,voltageCell5,voltageCell6,current(A),battery_temperature(c),altitude(meters),ascent(meters),flycStateRaw,flycState,message
0,2023-03-09 04:55:13,-23.506779421626,152.091496260917,0,Available with any HD 360 subscription,Available with any HD 360 subscription,1.066874,0.2,0,0,0,19,5,0,1.066874,0,0,0,0,0,0,327.4, 0.2, -0.5,0,0,364,364,364,1684,-100,-100,-100,100,0,0,0,100,,,,,,,0,,1.066874,0,6,P-GPS,
100,2023-03-09 04:55:13,-23.5067794273612,152.091496227704,0,,,1.066874,0.2,0,0.00344652,0.00344652,19,5,0,1.066874,0,0,0.00344652,0,0,0,327.4, 0.2, -0.5,0,0,364,364,364,1684,-100,-100,-100,100,0,0,0,100,,,,,,,0,,1.066874,0,41,Motors_Started,
200,2023-03-09 04:55:13,-23.506779425377,152.091496241152,0,,,1.066874,0.2,0,0.00205834,0.00483553,19,5,0,1.066874,0,0,0.00344652,0,0,0,327.4, 0.2, -0.5,0,0,364,364,364,1684,-100,-100,-100,100,0,0,0,100,,,,,,,0,,1.066874,0,41,Motors_Started,
300,2023-03-09 04:55:13,-23.506779430187,152.091496215542,0,,,1.066874,0.2,0,0.00472418,0.00750137,19,5,0,1.066874,0,0,0.00472418,0,0,0,327.4, 0.2, -0.5,0,0,364,364,364,1684,-100,-100,-100,100,0,0,0,100,,,,,,,0,,1.066874,0,41,Motors_Started,
400,2023-03-09 04:55:14,-23.5067794290042,152.091496226194,0,,,1.066874,0.2,0,0.00363483,0.00859555,19,5,0,1.066874,0,0,0.00472418,0,0,0,327.4, 0.2, -0.5,0,0,364,364,364,1684,-100,-100,-100,100,0,0,0,100,,,,,,,0,,1.066874,0,41,Motors_Started,
500,2023-03-09 04:55:14,-23.5067794343639,152.091496363881,0,,,1.066874,0.2,0,0.0105952,0.0226493,19,5,0,1.066874,0,0,0.0105952,0,0,0,327.4, 0.2, -0.5,0,0,364,364,364,1684,-100,-100,-100,100,0,0,0,100,,,,,,,0,,1.066874,0,41,Motors_Started,
600,2023-03-09 04:55:14,-23.5067794341718,152.091496387399,0,,,1.066874,0.2,0,0.0129735,0.0250476,19,5,0,1.066874,0,0,0.0129735,0,0,0,327.4, 0.2, -0.5,0,0,367,364,472,1666,-100,-100,-84,97,0,0,0,100,,,,,,,0,,1.066874,0,41,Motors_Started,"Setting new Return-To-Home altitude to 50m (164 ft). Data Recorder File Index is 82"
700,2023-03-09 04:55:14,-23.5067795961764,152.091496349106,0,,,1.066874,0.2,0,0.0213932,0.0434818,19,5,0,1.066874,0,0,0.0213932,0,0,0,327.4, 0.2, -0.5,0,0,1024,1024,1024,1024,0,0,0,0,0,0,0,100,,,,,,,0,,1.066874,0,41,Motors_Started,
800,2023-03-09 04:55:14,-23.5067796104739,152.091496370047,0,,,1.066874,0.2,0,0.0237675,0.0461443,19,5,0,1.066874,0,0,0.0237675,0,0,0,327.4, 0.2, -0.5,0,0,1024,1024,1024,1024,0,0,0,0,0,0,0,100,,,,,,,0,,1.066874,0,41,Motors_Started,
900,2023-03-09 04:55:14,-23.5067795890275,152.091496338234,0,,,1.066874,0.2,0,0.0202169,0.0501708,19,5,0,1.066874,0,0,0.0237675,0,0,0,327.4, 0.2, -0.5,0,0,1024,1024,1024,1024,0,0,0,0,0,0,0,100,,,,,,,0,,1.066874,0,41,Motors_Started,
1000,2023-03-09 04:55:14,-23.5067796017751,152.091496356869,0,,,1.066874,0.2,0,0.0222956,0.0525416,19,5,0,1.066874,0,0,0.0237675,0,0,0,327.4, 0.2, -0.5,0,0,1024,1024,1024,1024,0,0,0,0,0,0,0,100,,,,,,,0,,1.066874,0,41,Motors_Started,
1100,2023-03-09 04:55:14,-23.5067795809399,152.091496485868,0,,,1.066874,0.2,0,0.0289848,0.065899,19,5,0,1.066874,0,0,0.0289848,0,0,0,327.4, 0.2, -0.5,0,0,1024,1024,1024,1024,0,0,0,0,0,0,0,100,,,,,,,0,,1.066874,0,41,Motors_Started,
1200,2023-03-09 04:55:14,-23.5067795921297,152.091496514883,0,,,1.066874,0.2,0,0.0320978,0.069109,19,5,0,1.066874,0,0,0.0320978,0,0,0,327.4, 0.2, -0.5,0,0,1024,1024,1024,1024,0,0,0,0,0,0,0,100,,,,,,,0,,1.066874,0,41,Motors_Started,
1300,2023-03-09 04:55:14,-23.506779580276,152.091496466847,0,,,1.066874,0.2,0,0.0274277,0.0741819,19,5,0,1.066874,0,0,0.0320978,0,0,0,327.3, 0.2, -0.5,0,0,1024,1024,1024,1024,0,0,0,0,0,0,0,100,,,,,,,0,,1.066874,0,41,Motors_Started,
1400,2023-03-09 04:55:15,-23.5067795900201,152.091496491029,0,,,1.066874,0.2,0,0.0300224,0.0768755,19,5,0,1.066874,0,0,0.0320978,0,0,0,327.5, 0.3, -0.5,0,0,1024,1024,1024,1024,0,0,0,0,0,0,0,100,,,,,,,0,,1.066874,0,41,Motors_Started,
1500,2023-03-09 04:55:15,-23.5067795779562,152.091496441008,0,,,1.066874,0.2,0,0.0252886,0.0821499,19,5,0,1.066874,0,0,0.0320978,0,0,0,327.4, 0.2, -0.5,0,0,1024,1024,1024,1024,0,0,0,0,0,0,0,100,,,,,,,0,,1.066874,0,41,Motors_Started,
1600,2023-03-09 04:55:15,-23.5067795895334,152.091496463905,0,,,1.066874,0.2,0,0.0278774,0.0848163,19,5,0,1.066874,0,0,0.0320978,0,0,0,327.3, 0.2, -0.5,0,0,1024,1024,1024,1024,0,0,0,0,0,0,0,100,,,,,,,0,,1.066874,0,41,Motors_Started,
1700,2023-03-09 04:55:15,-23.5067795731793,152.091496593645,0,,,1.066874,0.2,0,0.0378859,0.0981712,19,5,0,1.066874,0,0,0.0378859,0,0,0,327.3, 0.2, -0.5,0,0,1024,1024,1024,1024,0,0,0,0,0,0,0,100,,,,,,,0,,1.066874,0,41,Motors_Started,
1800,2023-03-09 04:55:15,-23.5067795814371,152.091496626462,0,,,1.066874,0.2,0,0.041297,0.101642,19,5,0,1.066874,0,0,0.041297,0,0,0,327.3, 0.1, -0.5,0,0,1024,1024,1024,1024,0,0,0,0,0,0,0,100,,,,,,,0,,1.066874,0,41,Motors_Started,
1900,2023-03-09 04:55:15,-23.5067795830957,152.091496577497,0,,,1.066874,0.2,0,0.0369417,0.106638,19,5,0,1.066874,0,0,0.041297,0,0,0,327.3, 0.2, -0.5,0,0,1024,1024,1024,1024,0,0,0,0,0,0,0,100,,,,,,,0,,1.066874,0,41,Motors_Started,
2000,2023-03-09 04:55:15,-23.5067795892926,152.091496601711,0,,,1.066874,0.2,0,0.0394392,0.109202,19,5,0,1.066874,0,0,0.041297,0,0,0,327.3, 0.1, -0.5,0,0,1024,1024,1024,1024,0,0,0,0,0,0,0,100,,,,,,,0,,1.066874,0,41,Motors_Started,
2100,2023-03-09 04:55:15,-23.5067795677914,152.091496545909,0,,,1.066874,0.2,0,0.0332995,0.115374,19,5,0,1.066874,0,0,0.041297,0,0,0,327.3, 0.2, -0.5,0,0,1024,1024,1024,1024,0,0,0,0,0,0,0,100,,,,,,,0,,1.066874,0,10,Assisted_Takeoff,
2200,2023-03-09 04:55:15,-23.5067795729508,152.091496564534,0,,,1.066874,0.2,0,0.0352397,0.117358,19,5,0,1.066874,0,0,0.041297,0,0,0,327.3, 0.2, -0.5,0,0,1024,1024,1024,1024,0,0,0,0,0,0,0,100,,,,,,,0,,1.066874,0,10,Assisted_Takeoff,
2300,2023-03-09 04:55:16,-23.5067797195494,152.091496521629,0,,,1.066874,0.2,0,0.0424795,0.134238,19,5,0,1.066874,0,0,0.0424795,0,0,0,327.3, 0.1, -0.5,0,0,1024,1024,1024,1024,0,0,0,0,0,0,0,100,,,,,,,0,,1.066874,0,10,Assisted_Takeoff,
2400,2023-03-09 04:55:16,-23.506779740321,152.091496535836,0,,,1.066874,0.2,0,0.045189,0.136965,19,5,0,1.066874,0,0,0.045189,0,0,0,327.3, 0.2, -0.5,0,0,1024,1024,1024,1024,0,0,0,0,0,0,0,100,,,,,,,0,,1.066874,0,10,Assisted_Takeoff,
2500,2023-03-09 04:55:16,-23.5067797009318,152.091496505297,0,,,1.066874,0.2,0,0.0398224,0.142339,19,5,0,1.066874,0,0,0.045189,0,0,0,327.3, 0.1, -0.5,0,0,1024,1024,1024,1024,0,0,0,0,0,0,0,100,,,,,,,0,,1.066874,0,10,Assisted_Takeoff,
2600,2023-03-09 04:55:16,-23.5067797171346,152.091496515231,0,,,1.066874,0.2,0,0.0418631,0.144406,18,5,0,1.066874,0,0,0.045189,0,0,0,327.3, 0.1, -0.5,0,0,1024,1024,1024,1024,0,0,0,0,0,0,0,100,,,,,,,0,,1.066874,0,10,Assisted_Takeoff,
2700,2023-03-09 04:55:16,-23.5067796911034,152.091496649163,0,,,1.066874,0.2,0,0.0496548,0.158368,18,5,0,1.066874,0,0,0.0496548,0,0,0,327.3, 0.2, -0.5,0,0,1024,1024,1024,1024,0,0,0,0,0,0,0,100,,,,,,,0,,1.066874,0,10,Assisted_Takeoff,
2800,2023-03-09 04:55:16,-23.506779702132,152.091496668554,0,,,1.066874,0.2,0,0.0519722,0.160695,18,5,0,1.066874,0,0,0.0519722,0,0,0,327.2, 0.1, -0.5,0,0,1024,1024,1024,1024,0,0,0,0,0,0,0,100,,,,,,,0,,1.066874,0,10,Assisted_Takeoff,
2900,2023-03-09 04:55:16,-23.5067796846959,152.091496629413,0,,,1.066874,0.2,0,0.0476233,0.165132,18,5,0,1.066874,0,0,0.0519722,0,0,0,327.2, 0.2, -0.5,0,0,1024,1024,1024,1024,0,0,0,0,0,0,0,100,,,,,,,0,,1.066874,0,10,Assisted_Takeoff,
3000,2023-03-09 04:55:16,-23.5067796953651,152.09149664423,0,,,1.066874,0.2,0,0.0495445,0.167053,18,5,0,1.066874,0,0,0.0519722,0,0,0,327.2, 0.2, -0.5,0,0,1024,1024,1024,1024,0,0,0,0,0,0,0,100,,,,,,,0,,1.066874,0,10,Assisted_Takeoff,
3100,2023-03-09 04:55:16,-23.5067796763902,152.091496610765,0,,,1.066874,0.2,0,0.0455575,0.171066,18,5,0,1.066874,0,0,0.0519722,0,0,0,327.2, 0.1, -0.5,0,0,1024,1024,1024,1024,0,0,0,0,0,0,0,100,,,,,,,0,,1.066874,0,10,Assisted_Takeoff,
3200,2023-03-09 04:55:16,-23.5067796882064,152.091496621586,0,,,1.066874,0.2,0,0.04724,0.172782,18,5,0,1.066874,0,0,0.0519722,0,0,0,327.3, 0.2, -0.5,0,0,1024,1024,1024,1024,0,0,0,0,0,0,0,100,,,,,,,0,,1.066874,0,10,Assisted_Takeoff,
3300,2023-03-09 04:55:16,-23.5067796717622,152.09149659607,0,,,1.066874,0.2,0,0.0440671,0.175962,18,5,0,1.066874,0,0,0.0519722,0,0,0,327.2, 0.2, -0.5,0,0,1024,1024,1024,1024,0,0,0,0,0,0,0,100,,,,,,,0,,1.066874,0,10,Assisted_Takeoff,
3400,2023-03-09 04:55:17,-23.5067796788763,152.091496603066,0,,,1.066874,0.2,0,0.0451201,0.177027,18,5,0,1.066874,0,0,0.0519722,0,0,0,327.2, 0.2, -0.5,0,0,1024,1024,1024,1024,0,0,0,0,0,0,0,100,,,,,,,0,,1.066874,0,10,Assisted_Takeoff,
3500,2023-03-09 04:55:17,-23.5067798282633,152.091496742328,0,,,1.066874,0.2,0,0.066746,0.198883,18,5,0,1.066874,0,0,0.066746,0,0,0,327.2, 0.2, -0.5,0,0,1024,1024,1024,1024,0,0,0,0,0,0,0,100,,,,,,,0,,1.066874,0,10,Assisted_Takeoff,
3600,2023-03-09 04:55:17,-23.5067798497955,152.091496760278,0,,,1.066874,0.2,0,0.0697166,0.201897,17,5,0,1.066874,0,0,0.0697166,0,0,0,327.2, 0.2, -0.5,0,0,1024,1024,1024,1024,0,0,0,0,0,0,0,100,,,,,,,0,,1.066874,0,10,Assisted_Takeoff,
3700,2023-03-09 04:55:17,-23.5067798177932,152.091496722599,0,,,1.066874,0.2,0,0.0644793,0.207134,17,5,0,1.066874,0,0,0.0697166,0,0,0,327.2, 0.2, -0.5,0,0,1024,1024,1024,1024,0,0,0,0,0,0,0,100,,,,,,,0,,1.066874,0,10,Assisted_Takeoff,
3800,2023-03-09 04:55:17,-23.5067798329103,152.091496735719,0,,,1.066874,0.2,0,0.0666056,0.209283,18,5,0,1.066874,0,0,0.0697166,0,0,0,327.2, 0.1, -0.5,0,0,1024,1024,1024,1024,0,0,0,0,0,0,0,100,,,,,,,0,,1.066874,0,10,Assisted_Takeoff,
3900,2023-03-09 04:55:17,-23.506779803251,152.091496705284,0,,,1.066874,0.2,0,0.0620851,0.213812,18,5,0,1.066874,0,0,0.0697166,0,0,0,327.2, 0.2, -0.5,0,0,1024,1024,1024,1024,0,0,0,0,0,0,0,100,,,,,,,0,,1.066874,0,10,Assisted_Takeoff,
4000,2023-03-09 04:55:17,-23.5067798178666,152.091496714859,0,,,1.066874,0.2,0,0.0639109,0.215708,18,5,0,1.066874,0,0,0.0697166,0,0,0,327.2, 0.2, -0.5,0,0,1024,1024,1024,1024,0,0,0,0,0,0,0,100,,,,,,,0,,1.066874,0,10,Assisted_Takeoff,
4100,2023-03-09 04:55:17,-23.5067796263572,152.091496691958,0,,,1.066874,0.2,0,0.0495027,0.237133,18,5,0,1.066874,0,0,0.0697166,0,0,0,327.2, 0.1, -0.5,0,0,1024,1024,1024,1024,0,0,0,0,0,0,0,100,,,,,,,0,,1.066874,0,10,Assisted_Takeoff,
4200,2023-03-09 04:55:17,-23.5067796209369,152.091496697753,0,,,1.066874,0.2,0,0.0497568,0.237977,18,5,0,1.066874,0,0,0.0697166,0,0,0,327.2, 0.1, -0.5,0,0,1024,1024,1024,1024,0,0,0,0,0,0,0,100,,,,,,,0,,1.066874,0,10,Assisted_Takeoff,
4300,2023-03-09 04:55:17,-23.5067796276925,152.091496520272,0,,,1.066874,0.2,0,0.034995,0.256091,18,5,0,1.066874,0,0,0.0697166,0,0,0,327.2, 0.2, -0.5,0,0,1024,1024,1024,1024,0,0,0,0,0,0,0,100,,,,,,,0,,1.066874,0,10,Assisted_Takeoff,
4400,2023-03-09 04:55:18,-23.5067796211969,152.091496507519,0,,,1.066874,0.2,0,0.0335405,0.257579,18,5,0,1.066874,0,0,0.0697166,0,0,0,327.2, 0.2, -0.5,0,0,1024,1024,1024,1024,0,0,0,0,0,0,0,100,,,,,,,0,,1.066874,0,10,Assisted_Takeoff,
4500,2023-03-09 04:55:18,-23.5067796189699,152.091496520109,0,,,1.066874,0.2,0,0.0343548,0.258886,18,5,0,1.066874,0,0,0.0697166,0,0,0,327.2, 0.1, -0.5,0,0,1024,1024,1024,1024,0,0,0,0,0,0,0,100,,,,,,,0,,1.066874,0,10,Assisted_Takeoff,
4600,2023-03-09 04:55:18,-23.50677961204,152.09149650887,0,,,1.066874,0.2,0,0.0329811,0.260268,18,5,0,1.066874,0,0,0.0697166,0,0,0,327.3, 0.2, -0.5,0,0,1024,1024,1024,1024,0,0,0,0,0,0,0,100,,,,,,,0,,1.066874,0,10,Assisted_Takeoff,
4700,2023-03-09 04:55:18,-23.5067796231917,152.091496520677,0,,,1.066874,0.2,0,0.0347008,0.261996,18,5,0,1.066874,0,0,0.0697166,0,0,0,327.2, 0.2, -0.5,0,0,1024,1024,1024,1024,0,0,0,0,0,0,0,100,,,,,,,0,,1.066874,0,10,Assisted_Takeoff,
4800,2023-03-09 04:55:18,-23.5067796146407,152.091496507229,0,,,1.066874,0.2,0,0.0330401,0.263665,19,5,0,1.066874,0,0,0.0697166,0,0,0,327.2, 0.2, -0.5,0,0,1024,1024,1024,1024,0,0,0,0,0,0,0,100,,,,,,,0,,1.066874,0,10,Assisted_Takeoff,
4900,2023-03-09 04:55:18,-23.5067796155148,152.091496525021,0,,,1.066874,0.2,0,0.0345003,0.265482,19,5,0,1.066874,0,0,0.0697166,0,0,0,327.2, 0.1, -0.5,0,0,1024,1024,1024,1024,0,0,0,0,0,0,0,100,,,,,,,0,,1.066874,0,10,Assisted_Takeoff,
5000,2023-03-09 04:55:18,-23.5067796085357,152.091496516908,0,,,1.066874,0.2,0,0.0333695,0.266616,19,5,0,1.066874,0,0,0.0697166,0,0,0,327.3, 0.2, -0.5,0,0,1024,1024,1024,1024,0,0,0,0,0,0,0,100,,,,,,,0,,1.066874,0,10,Assisted_Takeoff,
5100,2023-03-09 04:55:18,-23.5067796233371,152.091496531338,0,,,1.066874,0.2,0,0.0355479,0.268824,19,5,0,1.066874,0,0,0.0697166,0,0,0,327.2, 0.2, -0.5,0,0,1024,1024,1024,1024,0,0,0,0,0,0,0,100,,,,,,,0,,1.066874,0,10,Assisted_Takeoff,
5200,2023-03-09 04:55:18,-23.5067796172486,152.091496519252,0,,,1.066874,0.2,0,0.0341655,0.27023,19,5,0,1.066874,0,0,0.0697166,0,0,0,327.2, 0.1, -0.6,0,0,1024,1024,1024,1024,0,0,0,0,0,0,0,100,,,,,,,0,,1.066874,0,10,Assisted_Takeoff,
5300,2023-03-09 04:55:18,-23.5067796263345,152.091496535209,0,,,1.066874,0.2,0,0.0360645,0.272146,19,5,0,1.066874,0,0,0.0697166,0,0,0,327.3, 0.2, -0.5,0,0,1024,1024,1024,1024,0,0,0,0,0,0,0,100,,,,,,,0,,1.066874,0,10,Assisted_Takeoff,
5400,2023-03-09 04:55:19,-23.5067796215107,152.091496527977,0,,,1.066874,0.2,0,0.0351539,0.273058,19,5,0,1.066874,0,0,0.0697166,0,0,0,327.3, 0.2, -0.5,0,0,1024,1024,1024,1024,0,0,0,0,0,0,0,100,,,,,,,0,,1.066874,0,10,Assisted_Takeoff,
5500,2023-03-09 04:55:19,-23.506779632055,152.091496699135,0,,,1.066874,0.2,0,0.0504446,0.290551,19,5,0,1.066874,0,0,0.0697166,0,0,0,327.2, 0.2, -0.5,0,0,1024,1024,1024,1024,0,0,0,0,0,0,0,100,,,,,,,0,,1.066874,0,10,Assisted_Takeoff,
5600,2023-03-09 04:55:19,-23.5067796286761,152.091496705059,0,,,1.066874,0.2,0,0.0508092,0.291263,19,5,0,1.066874,0,0,0.0697166,0,0,0,327.2, 0.1, -0.6,0,0,1024,1024,1024,1024,0,0,0,0,0,0,0,100,,,,,,,0,,1.066874,0,10,Assisted_Takeoff,
5700,2023-03-09 04:55:19,-23.5067796344794,152.0914966934,0,,,1.066874,0.2,0,0.0500541,0.292616,19,5,0,1.066874,0,0,0.0697166,0,0,0,327.3, 0.2, -0.5,0,0,1024,1024,1024,1024,0,0,0,0,0,0,0,100,,,,,,,0,,1.066874,0,10,Assisted_Takeoff,
5800,2023-03-09 04:55:19,-23.5067796313721,152.091496700049,0,,,1.066874,0.2,0,0.050492,0.293377,19,5,0,1.066874,0,0,0.0697166,0,0,0,327.2, 0.2, -0.5,0,0,1024,1024,1024,1024,0,0,0,0,0,0,0,100,,,,,,,0,,1.066874,0,10,Assisted_Takeoff,
5900,2023-03-09 04:55:19,-23.5067796373215,152.091496692677,0,,,1.066874,0.2,0,0.0501396,0.294378,19,5,0,1.066874,0,0,0.0697166,0,0,0,327.2, 0.1, -0.5,0,0,1024,1024,1024,1024,0,0,0,0,0,0,0,100,,,,,,,0,,1.066874,0,10,Assisted_Takeoff,
6000,2023-03-09 04:55:19,-23.5067796376717,152.091496697178,0,,,1.066874,0.2,0,0.0505617,0.294839,19,5,0,1.066874,0,0,0.0697166,0,0,0,327.3, 0.2, -0.6,0,0,1024,1024,1024,1024,0,0,0,0,0,0,0,100,,,,,,,0,,1.066874,0,10,Assisted_Takeoff,
6100,2023-03-09 04:55:19,-23.5067798028331,152.091496684855,0,,,1.066874,0.2,0,0.0605487,0.313249,19,5,0,1.066874,0,0,0.0697166,0,0,0,327.3, 0.2, -0.5,0,0,1024,1024,1024,1024,0,0,0,0,0,0,0,100,,,,,,,0,,1.066874,0,10,Assisted_Takeoff,
6200,2023-03-09 04:55:19,-23.5067798159553,152.091496687119,0,,,1.066874,0.2,0,0.0617415,0.314726,19,5,0,1.066874,0,0,0.0697166,0,0,0,327.2, 0.2, -0.5,0,0,1024,1024,1024,1024,0,0,0,0,0,0,0,100,,,,,,,0,,1.066874,0,10,Assisted_Takeoff,
6300,2023-03-09 04:55:20,-23.5067797973482,152.091496840624,0,,,1.066874,0.2,0,0.072392,0.330516,19,5,0,1.066874,0,0,0.072392,0,0,0,327.3, 0.1, -0.6,0,0,1024,1024,1024,1024,0,0,0,0,0,0,0,100,,,,,,,0,,1.066874,0,10,Assisted_Takeoff,
6400,2023-03-09 04:55:20,-23.5067798098912,152.091496859668,0,,,1.066874,0.2,0,0.0747831,0.332907,19,5,0,1.066874,0,0,0.0747831,0,0,0,327.2, 0.2, -0.5,0,0,1024,1024,1024,1024,0,0,0,0,0,0,0,100,,,,,,,0,,1.066874,0,10,Assisted_Takeoff,
6500,2023-03-09 04:55:20,-23.5067797896664,152.091496830101,0,,,1.066874,0.2,0,0.0710227,0.336669,19,5,0,1.066874,0,0,0.0747831,0,0,0,327.2, 0.2, -0.5,0,0,1024,1024,1024,1024,0,0,0,0,0,0,0,100,,,,,,,0,,1.066874,0,10,Assisted_Takeoff,
6600,2023-03-09 04:55:20,-23.5067797995234,152.091496843781,0,,,1.066874,0.2,0,0.0727946,0.338443,19,5,0,1.066874,0,0,0.0747831,0,0,0,327.2, 0.2, -0.5,0,0,1024,1024,1024,1024,0,0,0,0,0,0,0,100,,,,,,,0,,1.066874,0,10,Assisted_Takeoff,
6700,2023-03-09 04:55:20,-23.5067799400961,152.091496981786,0,,,1.066874,0.2,0,0.0934259,0.359477,19,5,0,1.066874,0,0,0.0934259,0,0,0,327.2, 0.2, -0.6,0,0,1024,1024,1024,1024,0,0,0,0,0,0,0,100,,,,,,,0,,1.066874,0,10,Assisted_Takeoff,
6800,2023-03-09 04:55:20,-23.5067799633737,152.091497010708,0,,,1.066874,0.2,0,0.0973444,0.363402,19,5,0,1.066874,0,0,0.0973444,0,0,0,327.2, 0.2, -0.5,0,0,1024,1024,1024,1024,0,0,0,0,0,0,0,100,,,,,,,0,,1.066874,0,10,Assisted_Takeoff,
6900,2023-03-09 04:55:20,-23.506779924267,152.091496961841,0,,,1.066874,0.2,0,0.0907393,0.370016,19,5,0,1.066874,0,0,0.0973444,0,0,0,327.2, 0.2, -0.5,0,0,1024,1024,1024,1024,0,0,0,0,0,0,0,100,,,,,,,0,,1.066874,0,10,Assisted_Takeoff,
7000,2023-03-09 04:55:20,-23.5067799444571,152.091496981805,0,,,1.066874,0.2,0,0.0937275,0.373047,19,5,0,1.066874,0,0,0.0973444,0,0,0,327.2, 0.2, -0.6,0,0,1024,1024,1024,1024,0,0,0,0,0,0,0,100,,,,,,,0,,1.066874,0,10,Assisted_Takeoff,
7100,2023-03-09 04:55:20,-23.5067799124,152.091496938456,0,,,1.066874,0.2,0,0.0880488,0.378726,19,5,0,1.066874,0,0,0.0973444,0,0,0,327.2, 0.2, -0.5,0,0,1024,1024,1024,1024,0,0,0,0,0,0,0,100,,,,,,,0,,1.066874,0,10,Assisted_Takeoff,
7200,2023-03-09 04:55:20,-23.5067799272436,152.091496954989,0,,,1.066874,0.2,0,0.0903953,0.381085,19,5,0,1.066874,0,0,0.0973444,0,0,0,327.2, 0.1, -0.5,0,0,1024,1024,1024,1024,0,0,0,0,0,0,0,100,,,,,,,0,,1.066874,0,10,Assisted_Takeoff,
7300,2023-03-09 04:55:21,-23.5067800565054,152.091497078257,0,,,1.066874,0.2,0,0.109234,0.400181,19,5,0,1.066874,0,0,0.109234,0,0,0,327.2, 0.2, -0.6,0,0,1024,1024,1024,1024,0,0,0,0,0,0,0,100,,,,,,,0,,1.066874,0,10,Assisted_Takeoff,
7400,2023-03-09 04:55:21,-23.5067800834188,152.091497104377,0,,,1.066874,0.2,0,0.113202,0.404188,19,5,0,1.066874,0,0,0.113202,0,0,0,327.2, 0.2, -0.6,0,0,1024,1024,1024,1024,0,0,0,0,0,0,0,100,,,,,,,0,,1.066874,0,10,Assisted_Takeoff,
7500,2023-03-09 04:55:21,-23.5067800381378,152.091497055537,0,,,1.066874,0.2,0,0.106145,0.41127,19,5,0,1.066874,0,0,0.113202,0,0,0,327.2, 0.2, -0.5,0,0,1024,1024,1024,1024,0,0,0,0,0,0,0,100,,,,,,,0,,1.066874,0,10,Assisted_Takeoff,
7600,2023-03-09 04:55:21,-23.5067800605052,152.091497075255,0,,,1.066874,0.2,0,0.109289,0.414469,19,5,0,1.066874,0,0,0.113202,0,0,0,327.2, 0.1, -0.5,0,0,1024,1024,1024,1024,0,0,0,0,0,0,0,100,,,,,,,0,,1.066874,0,10,Assisted_Takeoff,
7700,2023-03-09 04:55:21,-23.5067800181071,152.091497037838,0,,,1.066874,0.2,0,0.10333,0.420534,19,5,0,1.066874,0,0,0.113202,0,0,0,327.3, 0.2, -0.6,0,0,1024,1024,1024,1024,0,0,0,0,0,0,0,100,,,,,,,0,,1.066874,0,10,Assisted_Takeoff,
7800,2023-03-09 04:55:21,-23.5067800343189,152.091497055873,0,,,1.066874,0.2,0,0.105898,0.42311,18,5,0,1.066874,0,0,0.113202,0,0,0,327.2, 0.2, -0.5,0,0,1024,1024,1024,1024,0,0,0,0,0,0,0,100,,,,,,,0,,1.066874,0,10,Assisted_Takeoff,
7900,2023-03-09 04:55:21,-23.5067799998802,152.091497181959,0,,,1.066874,0.2,0,0.11383,0.436526,18,5,0,1.066874,0,0,0.11383,0,0,0,327.2, 0.1, -0.5,0,0,1024,1024,1024,1024,0,0,0,0,0,0,0,100,,,,,,,0,,1.066874,0,10,Assisted_Takeoff,
8000,2023-03-09 04:55:21,-23.5067800138439,152.091497207994,0,,,1.066874,0.2,0,0.116898,0.439602,18,5,0,1.066874,0,0,0.116898,0,0,0,327.3, 0.2, -0.6,0,0,1024,1024,1024,1024,0,0,0,0,0,0,0,100,,,,,,,0,,1.066874,0,10,Assisted_Takeoff,
8100,2023-03-09 04:55:21,-23.5067799853772,152.09149715623,0,,,1.066874,0.2,0,0.110754,0.445757,18,5,0,1.066874,0,0,0.116898,0,0,0,327.3, 0.2, -0.6,0,0,1024,1024,1024,1024,0,0,0,0,0,0,0,100,,,,,,,0,,1.066874,0,10,Assisted_Takeoff,
8200,2023-03-09 04:55:21,-23.5067799926014,152.091497176743,0,,,1.066874,0.2,0,0.112934,0.447998,17,5,0,1.066874,0,0,0.116898,0,0,0,327.2, 0.2, -0.5,0,0,1024,1024,1024,1024,0,0,0,0,0,0,0,100,,,,,,,0,,1.066874,0,10,Assisted_Takeoff,
8300,2023-03-09 04:55:21,-23.5067799702725,152.0914971343,0,,,1.066874,0.2,0,0.107959,0.452988,17,5,0,1.066874,0,0,0.116898,0,0,0,327.3, 0.1, -0.6,0,0,1024,1024,1024,1024,0,0,0,0,0,0,0,100,,,,,,,0,,1.066874,0,10,Assisted_Takeoff,
8400,2023-03-09 04:55:22,-23.5067799790824,152.091497149579,0,,,1.066874,0.2,0,0.109798,0.454828,17,5,0,1.066874,0,0,0.116898,0,0,0,327.3, 0.2, -0.6,0,0,1024,1024,1024,1024,0,0,0,0,0,0,0,100,,,,,,,0,,1.066874,0,10,Assisted_Takeoff,
8500,2023-03-09 04:55:22,-23.5067799650798,152.091497115083,0,,,1.066874,0.2,0,0.106018,0.458675,17,5,0,1.066874,0,0,0.116898,0,0,0,327.2, 0.2, -0.5,0,0,1024,1024,1024,1024,0,0,0,0,0,0,0,100,,,,,,,0,,1.066874,0,10,Assisted_Takeoff,
8600,2023-03-09 04:55:22,-23.5067799690479,152.091497125459,0,,,1.066874,0.2,0,0.107139,0.459822,16,5,0,1.066874,0,0,0.116898,0,0,0,327.2, 0.1, -0.5,0,0,1024,1024,1024,1024,0,0,0,0,0,0,0,100,,,,,,,0,,1.066874,0,10,Assisted_Takeoff,
8700,2023-03-09 04:55:22,-23.5067799597627,152.091497259701,0,,,1.066874,0.2,0,0.118133,0.47355,16,5,0,1.066874,0,0,0.118133,0,0,0,327.3, 0.2, -0.6,0,0,1024,1024,1024,1024,0,0,0,0,0,0,0,100,,,,,,,0,,1.066874,0,10,Assisted_Takeoff,
8800,2023-03-09 04:55:22,-23.506779964761,152.091497281661,0,,,1.066874,0.2,0,0.120347,0.475857,16,5,0,1.066874,0,0,0.120347,0,0,0,327.2, 0.2, -0.6,0,0,1024,1024,1024,1024,0,0,0,0,0,0,0,100,,,,,,,0,,1.066874,0,10,Assisted_Takeoff,
8900,2023-03-09 04:55:22,-23.5067799550779,152.091497236983,0,,,1.066874,0.2,0,0.115874,0.480539,16,5,0,1.066874,0,0,0.120347,0,0,0,327.2, 0.2, -0.5,0,0,1024,1024,1024,1024,0,0,0,0,0,0,0,100,,,,,,,0,,1.066874,0,10,Assisted_Takeoff,
9000,2023-03-09 04:55:22,-23.5067799578686,152.091497251798,0,,,1.066874,0.2,0,0.117332,0.482081,17,5,0,1.066874,0,0,0.120347,0,0,0,327.2, 0.1, -0.6,0,0,1024,1024,1024,1024,0,0,0,0,0,0,0,100,,,,,,,0,,1.066874,0,10,Assisted_Takeoff,
9100,2023-03-09 04:55:22,-23.5067799549263,152.091497215424,0,,,1.066874,0.2,0,0.113982,0.485805,17,5,0,1.066874,0,0,0.120347,0,0,0,327.2, 0.2, -0.6,0,0,1024,1024,1024,1024,0,0,0,0,0,0,0,100,,,,,,,0,,1.066874,0,10,Assisted_Takeoff,
9200,2023-03-09 04:55:22,-23.5067799570879,152.091497226408,0,,,1.066874,0.2,0,0.115064,0.486951,17,5,0,1.066874,0,0,0.120347,0,0,0,327.2, 0.2, -0.6,0,0,1024,1024,1024,1024,0,0,0,0,0,0,0,100,,,,,,,0,,1.066874,0,10,Assisted_Takeoff,
9300,2023-03-09 04:55:23,-23.5067799491972,152.091497200897,0,,,1.066874,0.2,0,0.112386,0.489696,17,5,0,1.066874,0,0,0.120347,0,0,0,327.2, 0.1, -0.5,0,0,1024,1024,1024,1024,0,0,0,0,0,0,0,100,,,,,,,0,,1.066874,0,10,Assisted_Takeoff,
9400,2023-03-09 04:55:23,-23.5067799509532,152.091497207796,0,,,1.066874,0.2,0,0.113088,0.490426,17,5,0,1.066874,0,0,0.120347,0,0,0,327.2, 0.1, -0.6,0,0,1024,1024,1024,1024,0,0,0,0,0,0,0,100,,,,,,,0,,1.066874,0,10,Assisted_Takeoff,
9500,2023-03-09 04:55:23,-23.5067799512142,152.091497184925,0,,,1.066874,0.2,0,0.111119,0.492759,17,5,0,1.066874,0,0,0.120347,0,0,0,327.2, 0.2, -0.6,0,0,1024,1024,1024,1024,0,0,0,0,0,0,0,100,,,,,,,0,,1.066874,0,10,Assisted_Takeoff,
9600,2023-03-09 04:55:23,-23.5067799511242,152.09149718764,0,,,1.066874,0.2,0,0.111348,0.493036,17,5,0,1.066874,0,0,0.120347,0,0,0,327.2, 0.2, -0.6,0,0,1024,1024,1024,1024,0,0,0,0,0,0,0,100,,,,,,,0,,1.066874,0,10,Assisted_Takeoff,
9700,2023-03-09 04:55:23,-23.5067797852027,152.091497175081,0,,,1.066874,0.2,0,0.101614,0.511532,17,5,0,1.066874,0,0,0.120347,0,0,0,327.2, 0.1, -0.6,0,0,1024,1024,1024,1024,0,0,0,0,0,0,0,100,,,,,,,0,,1.066874,0,10,Assisted_Takeoff,
9800,2023-03-09 04:55:23,-23.506779771335,152.091497175973,0,,,1.066874,0.2,0,0.101095,0.513077,18,5,0,1.066874,0,0,0.120347,0,0,0,327.2, 0.2, -0.6,0,0,1024,1024,1024,1024,0,0,0,0,0,0,0,100,,,,,,,0,,1.066874,0,10,Assisted_Takeoff,
9900,2023-03-09 04:55:23,-23.5067797979182,152.091497165048,0,,,1.066874,0.2,0,0.101253,0.516236,18,5,0,1.066874,0,0,0.120347,0,0,0,327.2, 0.2, -0.6,0,0,1024,1024,1024,1024,0,0,0,0,0,0,0,100,,,,,,,0,,1.066874,0,10,Assisted_Takeoff,
10000,2023-03-09 04:55:23,-23.506779784477,152.091497162712,0,,,1.066874,0.2,0,0.100426,0.51775,18,5,0,1.066874,0,0,0.120347,0,0,0,327.2, 0.2, -0.6,0,0,1024,1024,1024,1024,0,0,0,0,0,0,0,100,,,,,,,0,,1.066874,0,10,Assisted_Takeoff,
10100,2023-03-09 04:55:23,-23.5067798037348,152.091497319425,0,,,1.066874,0.2,0,0.116007,0.533874,18,5,0,1.066874,0,0,0.120347,0,0,0,327.2, 0.1, -0.6,0,0,1024,1024,1024,1024,0,0,0,0,0,0,0,100,,,,,,,0,,1.066874,0,10,Assisted_Takeoff,
10200,2023-03-09 04:55:23,-23.5067797941402,152.091497332737,0,,,1.066874,0.2,0,0.116888,0.5356,19,5,0,1.066874,0,0,0.120347,0,0,0,327.2, 0.2, -0.5,0,0,1024,1024,1024,1024,0,0,0,0,0,0,0,100,,,,,,,0,,1.066874,0,10,Assisted_Takeoff,
10300,2023-03-09 04:55:24,-23.5067798116745,152.091497308643,0,,,1.066874,0.2,0,0.115313,0.538737,19,5,0,1.066874,0,0,0.120347,0,0,0,327.2, 0.2, -0.6,0,0,1024,1024,1024,1024,0,0,0,0,0,0,0,100,,,,,,,0,,1.066874,0,10,Assisted_Takeoff,
10400,2023-03-09 04:55:24,-23.5067798024252,152.091497316383,0,,,1.066874,0.2,0,0.115665,0.540034,19,5,0,1.066874,0,0,0.120347,0,0,0,327.2, 0.1, -0.6,0,0,1024,1024,1024,1024,0,0,0,0,0,0,0,100,,,,,,,0,,1.066874,0,10,Assisted_Takeoff,
10500,2023-03-09 04:55:24,-23.5067798192008,152.091497296703,0,,,1.066874,0.2,0,0.114507,0.542774,19,5,0,1.066874,0,0,0.120347,0,0,0,327.3, 0.2, -0.6,0,0,1024,1024,1024,1024,0,0,0,0,0,0,0,100,,,,,,,0,,1.066874,0,10,Assisted_Takeoff,
10600,2023-03-09 04:55:24,-23.5067798126524,152.091497303313,0,,,1.066874,0.2,0,0.114851,0.543766,19,5,0,1.066874,0,0,0.120347,0,0,0,327.2, 0.2, -0.5,0,0,1024,1024,1024,1024,0,0,0,0,0,0,0,100,,,,,,,0,,1.066874,0,10,Assisted_Takeoff,
10700,2023-03-09 04:55:24,-23.5067798226358,152.091497286975,0,,,1.066874,0.2,0,0.113742,0.545768,19,5,0,1.066874,0,0,0.120347,0,0,0,327.2, 0.1, -0.6,0,0,1024,1024,1024,1024,0,0,0,0,0,0,0,100,,,,,,,0,,1.066874,0,10,Assisted_Takeoff,
10800,2023-03-09 04:55:24,-23.5067798171799,152.091497289649,0,,,1.066874,0.2,0,0.113756,0.546433,19,5,0,1.066874,0,0,0.120347,0,0,0,327.2, 0.1, -0.6,0,0,1024,1024,1024,1024,0,0,0,0,0,0,0,100,,,,,,,0,,1.066874,0,10,Assisted_Takeoff,
10900,2023-03-09 04:55:24,-23.5067798337044,152.091497275041,0,,,1.066874,0.2,0,0.113116,0.548799,19,5,0,1.066874,0,0,0.120347,0,0,0,327.3, 0.2, -0.5,0,0,1024,1024,1024,1024,0,0,0,0,0,0,0,100,,,,,,,0,,1.066874,0,10,Assisted_Takeoff,
11000,2023-03-09 04:55:24,-23.5067798294697,152.091497274777,0,,,1.066874,0.2,0,0.112901,0.54927,19,5,0,1.066874,0,0,0.120347,0,0,0,327.2, 0.2, -0.6,0,0,1024,1024,1024,1024,0,0,0,0,0,0,0,100,,,,,,,0,,1.066874,0,10,Assisted_Takeoff,
11100,2023-03-09 04:55:24,-23.5067798312323,152.091497271943,0,,,1.066874,0.2,0,0.112716,0.54962,19,5,0,1.066874,0,0,0.120347,0,0,0,327.2, 0.1, -0.6,0,0,1024,1024,1024,1024,0,0,0,0,0,0,0,100,,,,,,,0,,1.066874,0,10,Assisted_Takeoff,
11200,2023-03-09 04:55:24,-23.5067798281054,152.091497274026,0,,,1.066874,0.2,0,0.11277,0.550027,19,5,0,1.066874,0,0,0.120347,0,0,0,327.3, 0.2, -0.6,0,0,1024,1024,1024,1024,0,0,0,0,0,0,0,100,,,,,,,0,,1.066874,0,10,Assisted_Takeoff,
11300,2023-03-09 04:55:24,-23.5067798403041,152.091497268769,0,,,1.066874,0.2,0,0.112832,0.551486,19,5,0,1.066874,0,0,0.120347,0,0,0,327.2, 0.2, -0.5,0,0,1024,1024,1024,1024,0,0,0,0,0,0,0,100,,,,,,,0,,1.066874,0,10,Assisted_Takeoff,
11400,2023-03-09 04:55:25,-23.506779837765,152.091497265886,0,,,1.066874,0.2,0,0.112448,0.551893,19,5,0,1.066874,0,0,0.120347,0,0,0,327.2, 0.1, -0.6,0,0,1024,1024,1024,1024,0,0,0,0,0,0,0,100,,,,,,,0,,1.066874,0,10,Assisted_Takeoff,
11500,2023-03-09 04:55:25,-23.5067798406725,152.091497267488,0,,,1.066874,0.2,0,0.11273,0.552256,19,5,0,1.066874,0,0,0.120347,0,0,0,327.2, 0.2, -0.6,0,0,1024,1024,1024,1024,0,0,0,0,0,0,0,100,,,,,,,0,,1.066874,0,10,Assisted_Takeoff,
11600,2023-03-09 04:55:25,-23.5067798389921,152.091497267246,0,,,1.066874,0.2,0,0.112631,0.552444,19,5,0,1.066874,0,0,0.120347,0,0,0,327.2, 0.2, -0.5,0,0,1024,1024,1024,1024,0,0,0,0,0,0,0,100,,,,,,,0,,1.066874,0,10,Assisted_Takeoff,
11700,2023-03-09 04:55:25,-23.5067798466208,152.091497423108,0,,,1.066874,0.2,0,0.127593,0.568361,19,5,0,1.066874,0,0,0.127593,0,0,0,327.2, 0.1, -0.5,0,0,1024,1024,1024,1024,0,0,0,0,0,0,0,100,,,,,,,0,,1.066874,0,10,Assisted_Takeoff,
11800,2023-03-09 04:55:25,-23.5067798476486,152.091497432255,0,,,1.066874,0.2,0,0.128502,0.569301,18,5,0,1.066874,0,0,0.128502,0,0,0,327.2, 0.1, -0.6,0,0,1024,1024,1024,1024,0,0,0,0,0,0,0,100,,,,,,,0,,1.066874,0,10,Assisted_Takeoff,
11900,2023-03-09 04:55:25,-23.5067798492557,152.091497406277,0,,,1.066874,0.2,0,0.126111,0.571956,18,5,0,1.066874,0,0,0.128502,0,0,0,327.2, 0.2, -0.6,0,0,1024,1024,1024,1024,0,0,0,0,0,0,0,100,,,,,,,0,,1.066874,0,10,Assisted_Takeoff,
12000,2023-03-09 04:55:25,-23.5067798496552,152.091497413956,0,,,1.066874,0.2,0,0.126853,0.57274,18,5,0,1.066874,0,0,0.128502,0,0,0,327.2, 0.1, -0.5,0,0,1024,1024,1024,1024,0,0,0,0,0,0,0,100,,,,,,,0,,1.066874,0,10,Assisted_Takeoff,
12100,2023-03-09 04:55:25,-23.5067800116244,152.091497395256,0,,,1.066874,0.2,0,0.132989,0.590853,18,5,0,1.066874,0,0,0.132989,0,0,0,327.2, 0.1, -0.6,0,0,1024,1024,1024,1024,0,0,0,0,0,0,0,100,,,,,,,0,,1.066874,0,10,Assisted_Takeoff,
12200,2023-03-09 04:55:25,-23.506780029197,152.091497397985,0,,,1.066874,0.2,0,0.134204,0.592827,18,5,0,1.066874,0,0,0.134204,0,0,0,327.2, 0.1, -0.6,0,0,1024,1024,1024,1024,0,0,0,0,0,0,0,100,,,,,,,0,,1.066874,0,10,Assisted_Takeoff,
12300,2023-03-09 04:55:25,-23.5067800080597,152.09149738027,0,,,1.066874,0.2,0,0.131465,0.595792,18,5,0,1.066874,0,0,0.134204,0,0,0,327.2, 0.2, -0.6,0,0,1024,1024,1024,1024,0,0,0,0,0,0,0,100,,,,,,,0,,1.066874,0,10,Assisted_Takeoff,
12400,2023-03-09 04:55:26,-23.5067800217839,152.091497383043,0,,,1.066874,0.2,0,0.132472,0.597344,18,5,0,1.066874,0,0,0.134204,0,0,0,327.2, 0.1, -0.6,0,0,1024,1024,1024,1024,0,0,0,0,0,0,0,100,,,,,,,0,,1.066874,0,10,Assisted_Takeoff,
12500,2023-03-09 04:55:26,-23.5067799992105,152.091497379827,0,,,1.066874,0.2,0,0.13094,0.599875,18,5,0,1.066874,0,0,0.134204,0,0,0,327.2, 0.1, -0.6,0,0,1024,1024,1024,1024,0,0,0,0,0,0,0,100,,,,,,,0,,1.066874,0,10,Assisted_Takeoff,
12600,2023-03-09 04:55:26,-23.5067800116393,152.091497381694,0,,,1.066874,0.2,0,0.131788,0.601271,18,5,0,1.066874,0,0,0.134204,0,0,0,327.2, 0.2, -0.6,0,0,1024,1024,1024,1024,0,0,0,0,0,0,0,100,,,,,,,0,,1.066874,0,10,Assisted_Takeoff,
12700,2023-03-09 04:55:26,-23.5067801473018,152.091497375843,0,,,1.066874,0.2,0,0.139426,0.616369,18,5,0,1.066874,0,0,0.139426,0,0,0,327.2, 0.1, -0.5,0,0,1024,1024,1024,1024,0,0,0,0,0,0,0,100,,,,,,,0,,1.066874,0,10,Assisted_Takeoff,
12800,2023-03-09 04:55:26,-23.5067801721865,152.091497375262,0,,,1.066874,0.2,0,0.140998,0.619137,18,5,0,1.066874,0,0,0.140998,0,0,0,327.2, 0.1, -0.6,0,0,1024,1024,1024,1024,0,0,0,0,0,0,0,100,,,,,,,0,,1.066874,0,10,Assisted_Takeoff,
12900,2023-03-09 04:55:26,-23.5067801341613,152.091497370323,0,,,1.066874,0.2,0,0.138123,0.623395,18,5,0,1.066874,0,0,0.140998,0,0,0,327.2, 0.2, -0.6,0,0,1024,1024,1024,1024,0,0,0,0,0,0,0,100,,,,,,,0,,1.066874,0,10,Assisted_Takeoff,
13000,2023-03-09 04:55:26,-23.5067801530494,152.091497368684,0,,,1.066874,0.2,0,0.139203,0.625502,17,5,0,1.066874,0,0,0.140998,0,0,0,327.2, 0.1, -0.6,0,0,1024,1024,1024,1024,0,0,0,0,0,0,0,100,,,,,,,0,,1.066874,0,10,Assisted_Takeoff,
13100,2023-03-09 04:55:26,-23.5067802704257,152.091497522487,0,,,1.066874,0.2,0,0.159565,0.645908,17,5,0,1.066874,0,0,0.159565,0,0,0,327.2, 0.1, -0.6,0,0,1024,1024,1024,1024,0,0,0,0,0,0,0,100,,,,,,,0,,1.066874,0,10,Assisted_Takeoff,
13200,2023-03-09 04:55:26,-23.5067803021621,152.091497534018,0,,,1.066874,0.2,0,0.162615,0.649628,17,5,0,1.066874,0,0,0.162615,0,0,0,327.2, 0.2, -0.6,0,0,1024,1024,1024,1024,0,0,0,0,0,0,0,100,,,,,,,0,,1.066874,0,10,Assisted_Takeoff,
13300,2023-03-09 04:55:26,-23.506780251595,152.091497513248,0,,,1.066874,0.2,0,0.157571,0.655637,17,5,0,1.066874,0,0,0.162615,0,0,0,327.2, 0.2, -0.6,0,0,1024,1024,1024,1024,0,0,0,0,0,0,0,100,,,,,,,0,,1.066874,0,10,Assisted_Takeoff,
13400,2023-03-09 04:55:27,-23.5067802752086,152.091497523741,0,,,1.066874,0.2,0,0.159983,0.658473,16,5,0,1.066874,0,0,0.162615,0,0,0,327.2, 0.1, -0.6,0,0,1024,1024,1024,1024,0,0,0,0,0,0,0,100,,,,,,,0,,1.066874,0,10,Assisted_Takeoff,
13500,2023-03-09 04:55:27,-23.506780229932,152.0914975083,0,,,1.066874,0.2,0,0.15576,0.663748,16,5,0,1.066874,0,0,0.162615,0,0,0,327.2, 0.2, -0.6,0,0,1024,1024,1024,1024,0,0,0,0,0,0,0,100,,,,,,,0,,1.066874,0,10,Assisted_Takeoff,
13600,2023-03-09 04:55:27,-23.5067802491793,152.091497516399,0,,,1.066874,0.2,0,0.157674,0.666042,16,5,0,1.066874,0,0,0.162615,0,0,0,327.2, 0.2, -0.6,0,0,1024,1024,1024,1024,0,0,0,0,0,0,0,100,,,,,,,0,,1.066874,0,10,Assisted_Takeoff,
13700,2023-03-09 04:55:27,-23.5067802089441,152.091497500195,0,,,1.066874,0.2,0,0.153744,0.670812,16,5,0,1.066874,0,0,0.162615,0,0,0,327.2, 0.1, -0.5,0,0,1024,1024,1024,1024,0,0,0,0,0,0,0,100,,,,,,,0,,1.066874,0,10,Assisted_Takeoff,
13800,2023-03-09 04:55:27,-23.5067802259238,152.091497505475,0,,,1.066874,0.2,0,0.155267,0.672776,16,5,0,1.066874,0,0,0.162615,0,0,0,327.2, 0.1, -0.6,0,0,1024,1024,1024,1024,0,0,0,0,0,0,0,100,,,,,,,0,,1.066874,0,10,Assisted_Takeoff,
13900,2023-03-09 04:55:27,-23.5067801954779,152.091497488503,0,,,1.066874,0.2,0,0.151912,0.676578,16,5,0,1.066874,0,0,0.162615,0,0,0,327.2, 0.2, -0.6,0,0,1024,1024,1024,1024,0,0,0,0,0,0,0,100,,,,,,,0,,1.066874,0,10,Assisted_Takeoff,
14000,2023-03-09 04:55:27,-23.506780207124,152.091497492181,0,,,1.066874,0.2,0,0.152957,0.677926,16,5,0,1.066874,0,0,0.162615,0,0,0,327.2, 0.2, -0.6,0,0,1024,1024,1024,1024,0,0,0,0,0,0,0,100,,,,,,,0,,1.066874,0,10,Assisted_Takeoff,
14100,2023-03-09 04:55:27,-23.5067801833155,152.09149748194,0,,,1.066874,0.2,0,0.150596,0.680773,16,5,0,1.066874,0,0,0.162615,0,0,0,327.2, 0.1, -0.6,0,0,1024,1024,1024,1024,0,0,0,0,0,0,0,100,,,,,,,0,,1.066874,0,10,Assisted_Takeoff,
14200,2023-03-09 04:55:27,-23.5067801934404,152.091497482777,0,,,1.066874,0.2,0,0.151303,0.681902,18,5,0,1.066874,0,0,0.162615,0,0,0,327.2, 0.1, -0.6,0,0,1024,1024,1024,1024,0,0,0,0,0,0,0,100,,,,,,,0,,1.066874,0,10,Assisted_Takeoff,
14300,2023-03-09 04:55:28,-23.5067801763318,152.091497314461,0,,,1.066874,0.2,0,0.136333,0.699171,18,5,0,1.066874,0,0,0.162615,0,0,0,327.2, 0.2, -0.6,0,0,1024,1024,1024,1024,0,0,0,0,0,0,0,100,,,,,,,0,,1.066874,0,10,Assisted_Takeoff,
14400,2023-03-09 04:55:28,-23.5067801805348,152.091497298964,0,,,1.066874,0.2,0,0.135382,0.700819,18,5,0,1.066874,0,0,0.162615,0,0,0,327.2, 0.1, -0.6,0,0,1024,1024,1024,1024,0,0,0,0,0,0,0,100,,,,,,,0,,1.066874,0,10,Assisted_Takeoff,
14500,2023-03-09 04:55:28,-23.506780320252,152.091497318511,0,,,1.066874,0.2,0,0.147032,0.716484,18,5,0,1.066874,0,0,0.162615,0,0,0,327.2, 0.1, -0.6,0,0,1024,1024,1024,1024,0,0,0,0,0,0,0,100,,,,,,,0,,1.066874,0,10,Assisted_Takeoff,
14600,2023-03-09 04:55:28,-23.5067803393651,152.091497304545,0,,,1.066874,0.2,0,0.147453,0.719043,19,5,0,1.066874,0,0,0.162615,0,0,0,327.2, 0.2, -0.6,0,0,1024,1024,1024,1024,0,0,0,0,0,0,0,100,,,,,,,0,,1.066874,0,10,Assisted_Takeoff,
14700,2023-03-09 04:55:28,-23.5067803062833,152.091497323077,0,,,1.066874,0.2,0,0.146325,0.723179,19,5,0,1.066874,0,0,0.162615,0,0,0,327.2, 0.2, -0.6,0,0,1024,1024,1024,1024,0,0,0,0,0,0,0,100,,,,,,,0,,1.066874,0,10,Assisted_Takeoff,
14800,2023-03-09 04:55:28,-23.5067803173325,152.091497310433,0,,,1.066874,0.2,0,0.146207,0.72496,19,5,0,1.066874,0,0,0.162615,0,0,0,327.2, 0.1, -0.6,0,0,1024,1024,1024,1024,0,0,0,0,0,0,0,100,,,,,,,0,,1.066874,0,10,Assisted_Takeoff,
14900,2023-03-09 04:55:28,-23.5067804431118,152.091497332045,0,,,1.066874,0.2,0,0.157592,0.73912,19,5,0,1.066874,0,0,0.162615,0,0,0,327.2, 0.1, -0.6,0,0,1024,1024,1024,1024,0,0,0,0,0,0,0,100,,,,,,,0,,1.066874,0,10,Assisted_Takeoff,
15000,2023-03-09 04:55:28,-23.5067804660904,152.091497322603,0,,,1.066874,0.2,0,0.158786,0.74185,19,5,0,1.066874,0,0,0.162615,0,0,0,327.2, 0.2, -0.6,0,0,1024,1024,1024,1024,0,0,0,0,0,0,0,100,,,,,,,0,,1.066874,0,10,Assisted_Takeoff,
15100,2023-03-09 04:55:28,-23.5067804217197,152.091497340165,0,,,1.066874,0.2,0,0.156467,0.7471,19,5,0,1.066874,0,0,0.162615,0,0,0,327.2, 0.1, -0.5,0,0,1024,1024,1024,1024,0,0,0,0,0,0,0,100,,,,,,,0,,1.066874,0,10,Assisted_Takeoff,
15200,2023-03-09 04:55:28,-23.5067804373633,152.091497331015,0,,,1.066874,0.2,0,0.157059,0.749074,19,5,0,1.066874,0,0,0.162615,0,0,0,327.2, 0.1, -0.6,0,0,1024,1024,1024,1024,0,0,0,0,0,0,0,100,,,,,,,0,,1.066874,0,10,Assisted_Takeoff,
15300,2023-03-09 04:55:28,-23.5067804015221,152.09149734501,0,,,1.066874,0.2,0,0.155231,0.753307,19,5,0,1.066874,0,0,0.162615,0,0,0,327.2, 0.2, -0.6,0,0,1024,1024,1024,1024,0,0,0,0,0,0,0,100,,,,,,,0,,1.066874,0,10,Assisted_Takeoff,
15400,2023-03-09 04:55:29,-23.5067804138729,152.091497337725,0,,,1.066874,0.2,0,0.155673,0.754869,19,5,0,1.066874,0,0,0.162615,0,0,0,327.2, 0.2, -0.6,0,0,1024,1024,1024,1024,0,0,0,0,0,0,0,100,,,,,,,0,,1.066874,0,10,Assisted_Takeoff,
15500,2023-03-09 04:55:29,-23.5067805405967,152.091497351173,0,,,1.066874,0.2,0,0.16687,0.769028,19,5,0,1.066874,0,0,0.16687,0,0,0,327.2, 0.1, -0.6,0,0,1024,1024,1225,1024,0,0,30,0,0,0,0,100,,,,,,,0,,1.066874,0,10,Assisted_Takeoff,
15600,2023-03-09 04:55:29,-23.5067805636952,152.091497345794,0,,,1.066874,0.2,0,0.168434,0.771654,19,5,0,1.066874,0,0,0.168434,0,0,0,327.2, 0.1, -0.6,0,0,1024,1024,1419,1024,0,0,60,0,0,0,0,100,,,,,,,0,,1.066874,0,10,Assisted_Takeoff,
15700,2023-03-09 04:55:29,-23.5067805250405,152.091497354769,0,,,1.066874,0.2,0,0.165831,0.776049,19,5,0,1.066874,0,0,0.168434,0,0,0,327.3, 0.2, -0.6,0,0,1024,1024,1480,1024,0,0,69,0,0,0,0,100,,,,,,,0,,1.066874,0,10,Assisted_Takeoff,
15800,2023-03-09 04:55:29,-23.5067805429021,152.091497348648,0,,,1.066874,0.2,0,0.16689,0.778132,19,5,0,1.066874,0,0,0.168434,0,0,0,327.2, 0.1, -0.6,0,0,1024,1024,1553,1024,0,0,80,0,0,0,0,100,,,,,,,0,,1.066874,0,10,Assisted_Takeoff,
15900,2023-03-09 04:55:29,-23.5067805042946,152.091497358961,0,,,1.066874,0.2,0,0.164422,0.782552,19,5,0,1.066874,0,0,0.168434,0,0,0,327.2, 0.2, -0.6,0,0,1024,1024,1585,1024,0,0,85,0,0,0,0,100,,,,,,,0,,1.066874,0,10,Assisted_Takeoff,
16000,2023-03-09 04:55:29,-23.5067805234006,152.091497352146,0,,,1.066874,0.3,0,0.165516,0.784787,19,5,0,1.066874,0,0,0.168434,0,0,0,327.2, 0.4, -0.7,0,0,1024,1024,1584,1024,0,0,85,0,0,0,0,100,,,,,,,0,,1.066874,0,10,Assisted_Takeoff,
16100,2023-03-09 04:55:29,-23.5067806680345,152.091497508086,0,,,1.066874,0.3,0,0.188116,0.807406,19,5,0,1.066874,0,0,0.188116,0,0,0,327, 0.7, -0.6,0,0,1024,1024,1582,1024,0,0,85,0,0,0,0,100,,,,,,,0,,1.066874,0,10,Assisted_Takeoff,
16200,2023-03-09 04:55:29,-23.5067807268923,152.091497501958,0,,,1.066874,0.3,0,0.192579,0.813981,19,5,0,1.066874,0,0,0.192579,0,0,-0.1,326.5, 2.4, 0,0,0,1024,1024,1581,1024,0,0,84,0,0,0,0,100,,,,,,,0,,1.066874,0,10,Assisted_Takeoff,
16300,2023-03-09 04:55:29,-23.5067807608344,152.091497454455,0,,,1.066874,0.3,0.1,0.192338,0.820122,19,5,0,1.066874,0,0.1,0.192579,-0.1,0,-0.3,325.9, 3.9, 0.8,0,0,1024,1024,1580,1024,0,0,84,0,0,0,0,100,,,,,,,0,,1.066874,0,6,P-GPS,
16400,2023-03-09 04:55:30,-23.5067809436086,152.091497447903,0,,,1.066874,0.3,0.2,0.208084,0.840458,18,5,0,1.066874,0,0.2,0.208084,-0.2,0,-0.6,325.5, 3, 1.1,0,0,1024,1024,1577,1024,0,0,84,0,0,0,0,100,,,,,,,0,,1.066874,0,6,P-GPS,
16500,2023-03-09 04:55:30,-23.5067812809365,152.091497440359,0.1,,,1.166874,0.4,0.2,0.239205,0.877979,18,5,0,1.166874,0.1,0.2,0.239205,-0.2,0,-0.9,325.5, 1.3, 1.3,0,0,1024,1024,1577,1024,0,0,84,0,0,0,0,100,,,,,,,0,,1.166874,0.1,6,P-GPS,
16600,2023-03-09 04:55:30,-23.5067815552483,152.091497433846,0.2,,,1.266874,0.5,0.2,0.265716,0.908492,19,5,0,1.266874,0.2,0.2,0.265716,-0.2,0,-1.2,325.4, 0, 1.7,0,0,1024,1024,1576,1024,0,0,84,0,0,0,0,100,,,,,,,0,,1.266874,0.2,6,P-GPS,
16700,2023-03-09 04:55:30,-23.5067817112096,152.091497434495,0.3,,,1.366874,0.6,0.2,0.28134,0.925836,19,5,0,1.366874,0.3,0.2,0.28134,-0.2,0,-1.5,325.3, -1.3, 2.7,0,0,1024,1024,1576,1024,0,0,84,0,0,0,0,100,,,,,,,0,,1.366874,0.3,6,P-GPS,"Home Point recorded. Return-to-Home Altitude:50.0 m"
16800,2023-03-09 04:55:30,-23.5067819359576,152.091497393696,0.5,,,1.566874,0.8,0.2,0.302532,0.951173,19,5,0,1.566874,0.5,0.2,0.302532,-0.2,0,-1.8,325.3, -1.4, 3.1,0,0,1024,1024,1576,1024,0,0,84,0,0,0,0,100,,,,,,,0,,1.566874,0.5,6,P-GPS,
16900,2023-03-09 04:55:30,-23.506782147372,152.091497174438,0.7,,,1.766874,1,0.1,0.317112,0.983618,19,5,0,1.766874,0.7,0.2,0.317112,-0.1,0,-2.2,325.5, -1, 3,0,0,1332,1024,1564,1024,47,0,82,0,0,0,0,100,,,,,,,0,,1.766874,0.7,6,P-GPS,
17000,2023-03-09 04:55:30,-23.5067822896079,152.091497093578,1,,,2.066874,1.2,0.14,0.330047,1.00146,18,5,0,2.066874,1,0.2,0.330047,-0.1,-0.1,-2.5,325.6, -0.6, 2.8,0,0,1471,1024,1564,1024,68,0,82,0,0,0,0,100,,,,,,,0,,2.066874,1,6,P-GPS,
17100,2023-03-09 04:55:30,-23.5067825123499,152.091497066321,1.2,,,2.266874,1.5,0.14,0.353384,1.02638,18,5,0,2.266874,1.2,0.2,0.353384,-0.1,-0.1,-2.9,325.6, -0.9, 2.7,0,0,1563,1024,1564,1024,82,0,82,0,0,0,0,100,,,,,,,0,,2.266874,1.2,6,P-GPS,
17200,2023-03-09 04:55:30,-23.506782627224,152.091496943775,1.5,,,2.566874,1.8,0.1,0.36322,1.04425,18,5,0,2.566874,1.5,0.2,0.36322,0,-0.1,-3.2,325.6, -5.1, 2.4,0,0,1666,1024,1565,1024,97,0,82,0,0,0,0,100,,,,,,,0,,2.566874,1.5,6,P-GPS,
17300,2023-03-09 04:55:31,-23.5067826155501,152.091496753711,1.9,,,2.966874,2.2,0.2,0.358721,1.06368,18,5,0,2.966874,1.9,0.2,0.36322,0,-0.2,-3.4,325.3, -11.8, 2.6,0,0,1684,1024,1566,1024,100,0,82,0,0,0,0,100,,,,,,,0,,2.966874,1.9,6,P-GPS,
17400,2023-03-09 04:55:31,-23.5067824766764,152.091496385426,2.2,,,3.266874,2.5,0.45,0.339977,1.10429,19,5,0,3.266874,2.2,0.45,0.36322,0.2,-0.4,-3.6,325, -18.5, 3.3,0,0,1684,1024,1566,1024,100,0,82,0,0,0,0,100,,,,,,,0,,3.266874,2.2,6,P-GPS,
17500,2023-03-09 04:55:31,-23.5067819079017,152.091495738855,2.6,,,3.666874,2.9,0.92,0.281568,1.19565,19,5,0,3.666874,2.6,0.92,0.36322,0.6,-0.7,-3.7,324.6, -22.4, 4.3,0,0,1684,1024,1565,1024,100,0,82,0,0,0,0,100,,,,,,,0,,3.666874,2.6,6,P-GPS,
17600,2023-03-09 04:55:31,-23.5067810987185,152.09149488833,3,,,4.066874,3.3,1.35,0.233186,1.32064,18,5,0,4.066874,3,1.35,0.36322,1,-0.9,-3.8,324.5, -23.8, 4.9,0,0,1684,1024,1565,1024,100,0,82,0,0,0,0,100,,,,,,,0,,4.066874,3,6,P-GPS,
17700,2023-03-09 04:55:31,-23.5067799132528,152.091493537408,3.4,,,4.466874,3.6,1.84,0.283066,1.51131,18,5,0,4.466874,3.4,1.84,0.36322,1.4,-1.2,-3.8,324.8, -23.7, 4.6,0,0,1684,1024,1565,1024,100,0,82,0,0,0,0,100,,,,,,,0,,4.466874,3.4,6,P-GPS,
17800,2023-03-09 04:55:31,-23.5067783781334,152.091492208399,3.8,,,4.866874,4,2.28,0.429248,1.72929,20,5,0,4.866874,3.8,2.28,0.429248,1.8,-1.4,-3.8,324.9, -23.3, 4.2,0,0,1684,1024,1566,1024,100,0,82,0,0,0,0,100,,,,,,,0,,4.866874,3.8,6,P-GPS,
17900,2023-03-09 04:55:31,-23.5067763005611,152.091490696452,4.2,,,5.266874,4.4,2.64,0.66518,2.00705,20,5,0,5.266874,4.2,2.64,0.66518,2.1,-1.6,-3.8,325, -23.1, 3.8,0,0,1684,1024,1565,1024,100,0,82,0,0,0,0,100,,,,,,,0,,5.266874,4.2,6,P-GPS,
18000,2023-03-09 04:55:31,-23.5067741197307,152.091488922135,4.5,,,5.566874,4.8,3.08,0.952743,2.30963,20,5,0,5.566874,4.5,3.08,0.952743,2.5,-1.8,-3.7,325.1, -23, 3.7,0,0,1684,1024,1565,1024,100,0,82,0,0,0,0,100,,,,,,,0,,5.566874,4.5,6,P-GPS,
18100,2023-03-09 04:55:31,-23.5067719597661,152.09148719719,4.9,,,5.966874,5.1,3.08,1.24213,2.60735,20,5,0,5.966874,4.9,3.08,1.24213,2.8,-2,-3.7,325.2, -23.1, 3.6,0,0,1684,1024,1565,1024,100,0,82,0,0,0,0,100,,,,,,,0,,5.966874,4.9,6,P-GPS,
18200,2023-03-09 04:55:31,-23.5067691911328,152.091484999045,5.3,,,6.366874,5.5,3.86,1.61657,2.9882,18,5,0,6.366874,5.3,3.86,1.61657,3.1,-2.3,-3.7,325.2, -22.9, 3.6,0,0,1684,1024,1565,1024,100,0,82,0,0,0,0,100,,,,,,,0,,6.366874,5.3,6,P-GPS,
18300,2023-03-09 04:55:32,-23.5067663069394,152.091482906762,5.7,,,6.766874,6,4.3,1.99539,3.37343,18,5,0,6.766874,5.7,4.3,1.99539,3.5,-2.5,-3.7,325.2, -22.7, 3.6,0,0,1684,1024,1562,1024,100,0,82,0,0,0,0,100,,,,,,,0,,6.766874,5.7,6,P-GPS,
18400,2023-03-09 04:55:32,-23.506762971349,152.091480303753,6,,,7.066874,6.4,4.3,2.44839,3.82956,18,5,0,7.066874,6,4.3,2.44839,3.8,-2.7,-3.7,325.3, -22.5, 3.6,0,0,1684,1024,1562,1024,100,0,82,0,0,0,0,100,,,,,,,0,,7.066874,6,6,P-GPS,
18500,2023-03-09 04:55:32,-23.5067592215879,152.091477412265,6.4,,,7.466874,6.8,5.02,2.95648,4.34028,18,5,0,7.466874,6.4,5.02,2.95648,4.1,-2.9,-3.7,325.3, -22.2, 3.7,0,0,1684,1024,1563,1024,100,0,82,0,0,0,0,100,,,,,,,0,,7.466874,6.4,6,P-GPS,
18600,2023-03-09 04:55:32,-23.5067553329032,152.091474397604,6.7,,,7.766874,7.1,5.38,3.48525,4.87086,18,5,0,7.766874,6.7,5.38,3.48525,4.4,-3.1,-3.6,325.4, -22.1, 3.8,0,0,1684,1024,1564,1024,100,0,82,0,0,0,0,100,,,,,,,0,,7.766874,6.7,6,P-GPS,
18700,2023-03-09 04:55:32,-23.5067510958639,152.091471209902,7.1,,,8.166874,7.5,5.74,4.0557,5.4433,18,5,0,8.166874,7.1,5.74,4.0557,4.7,-3.3,-3.6,325.6, -21.9, 3.8,0,0,1684,1024,1564,1024,100,0,82,0,0,0,0,100,,,,,,,0,,8.166874,7.1,6,P-GPS,
18800,2023-03-09 04:55:32,-23.5067467004124,152.091467808504,7.5,,,8.566874,7.9,6.02,4.65399,6.04267,18,5,0,8.566874,7.5,6.02,4.65399,4.9,-3.5,-3.6,325.7, -21.7, 3.6,0,0,1684,1024,1565,1024,100,0,82,0,0,0,0,100,,,,,,,0,,8.566874,7.5,6,P-GPS,
18900,2023-03-09 04:55:32,-23.5067420761227,152.091464321848,7.9,,,8.966874,8.3,6.38,5.2779,6.66787,18,5,0,8.966874,7.9,6.38,5.2779,5.2,-3.7,-3.7,325.6, -21.5, 4,0,0,1684,1024,1571,1024,100,0,83,0,0,0,0,100,,,,,,,0,,8.966874,7.9,6,P-GPS,
19000,2023-03-09 04:55:32,-23.5067372126716,152.091460556001,8.3,,,9.366874,8.7,6.74,5.94056,7.33119,18,5,0,9.366874,8.3,6.74,5.94056,5.5,-3.9,-3.7,325.6, -21.6, 4.3,0,0,1684,1024,1573,1024,100,0,83,0,0,0,0,100,,,,,,,0,,9.366874,8.3,6,P-GPS,
19100,2023-03-09 04:55:32,-23.5067323842933,152.091456803715,8.6,,,9.666874,9.1,7.02,6.59941,7.99053,18,5,0,9.666874,8.6,7.02,6.59941,5.7,-4.1,-3.7,325.6, -21.5, 4.5,0,0,1684,1024,1575,1024,100,0,83,0,0,0,0,100,,,,,,,0,,9.666874,8.6,6,P-GPS,
19200,2023-03-09 04:55:32,-23.5067270708931,152.091452712929,9,,,10.066874,9.5,7.32,7.32217,8.71384,18,5,0,10.066874,9,7.32,7.32217,6,-4.2,-3.7,325.6, -21.2, 4.6,0,0,1684,1024,1577,1024,100,0,84,0,0,0,0,100,,,,,,,0,,10.066874,9,6,P-GPS,
19300,2023-03-09 04:55:32,-23.5067214192771,152.091448646293,9.4,,,10.466874,9.9,7.6,8.07355,9.46682,18,5,0,10.466874,9.4,7.6,8.07355,6.2,-4.4,-3.8,325.7, -21, 4.5,0,0,1684,1024,1578,1024,100,0,84,0,0,0,0,100,,,,,,,0,,10.466874,9.4,6,P-GPS,
19400,2023-03-09 04:55:33,-23.5067156436256,152.09144426698,9.8,,,10.866874,10.3,7.91,8.85534,10.2491,20,5,0,10.866874,9.8,7.91,8.85534,6.5,-4.5,-3.8,325.7, -21, 4.2,0,0,1684,1024,1579,1024,100,0,84,0,0,0,0,100,,,,,,,0,,10.866874,9.8,6,P-GPS,
19500,2023-03-09 04:55:33,-23.5067092343128,152.091439440593,10.2,,,11.266874,10.7,8.18,9.72096,11.1153,20,5,0,11.266874,10.2,8.18,9.72096,6.7,-4.7,-3.8,325.7, -21.3, 4.1,0,0,1684,1024,1585,1024,100,0,85,0,0,0,0,100,,,,,,,0,,11.266874,10.2,6,P-GPS,
19600,2023-03-09 04:55:33,-23.5067029935616,152.091434733305,10.6,,,11.666874,11.1,8.54,10.5644,11.9591,20,5,0,11.666874,10.6,8.54,10.5644,7,-4.9,-3.9,325.7, -21.4, 4,0,0,1684,1024,1589,1024,100,0,86,0,0,0,0,100,,,,,,,0,,11.666874,10.6,6,P-GPS,
19700,2023-03-09 04:55:33,-23.5066964904672,152.091429722097,11,,,12.066874,11.3,8.77,11.4497,12.8447,20,5,0,12.066874,11,8.77,11.4497,7.2,-5,-3.9,325.5, -21.2, 4.3,0,0,1684,1024,1593,1024,100,0,86,0,0,0,0,100,,,,,,,0,,12.066874,11,6,P-GPS,
19800,2023-03-09 04:55:33,-23.5066898377953,152.091424683101,11.4,,,12.466874,11.3,9.04,12.3502,13.7454,20,5,0,12.466874,11.4,9.04,12.3502,7.4,-5.2,-3.9,325.4, -20.7, 4.6,0,0,1684,1024,1599,1024,100,0,87,0,0,0,0,100,,,,,,,0,,12.466874,11.4,6,P-GPS,
19900,2023-03-09 04:55:33,-23.5066829899871,152.091419575805,11.8,,,12.866874,11.3,9.27,13.2723,14.668,20,5,0,12.866874,11.8,9.27,13.2723,7.6,-5.3,-3.9,325.4, -20.1, 4.8,0,0,1684,1024,1602,1024,100,0,88,0,0,0,0,100,,,,,,,0,,12.866874,11.8,6,P-GPS,
20000,2023-03-09 04:55:33,-23.5066759566292,152.091414275131,12.2,,,13.266874,11.3,9.63,14.2228,15.6188,20,5,0,13.266874,12.2,9.63,14.2228,7.9,-5.5,-3.9,325.3, -19.8, 4.8,0,0,1684,1024,1611,1024,100,0,89,0,0,0,0,100,,,,,,,0,,13.266874,12.2,6,P-GPS,
20100,2023-03-09 04:55:33,-23.5066693439474,152.091409313007,12.6,,,13.666874,11.3,9.85,15.1152,16.5114,20,5,0,13.666874,12.6,9.85,15.1152,8.1,-5.6,-4,325.4, -19.6, 4.8,0,0,1684,1024,1612,1024,100,0,89,0,0,0,0,100,,,,,,,0,,13.666874,12.6,6,P-GPS,
20200,2023-03-09 04:55:33,-23.5066619994321,152.091403805993,13,,,14.066874,11.3,10.07,16.1061,17.5026,20,5,0,14.066874,13,10.07,16.1061,8.3,-5.7,-4.1,325.4, -19.4, 4.7,0,0,1684,1024,1611,1024,100,0,89,0,0,0,0,100,,,,,,,0,,14.066874,13,6,P-GPS,
20300,2023-03-09 04:55:34,-23.5066544320325,152.091398023329,13.4,,,14.466874,11.3,10.35,17.1336,18.5302,20,5,0,14.466874,13.4,10.35,17.1336,8.5,-5.9,-4.1,325.4, -19.3, 4.4,0,0,1684,1024,1611,1024,100,0,89,0,0,0,0,100,,,,,,,0,,14.466874,13.4,6,P-GPS,
20400,2023-03-09 04:55:34,-23.5066467570245,152.091392265057,13.8,,,14.866874,11.3,10.49,18.1694,19.5662,20,5,0,14.866874,13.8,10.49,18.1694,8.6,-6,-4.1,325.4, -19.3, 4.3,0,0,1684,1024,1612,1024,100,0,89,0,0,0,0,100,,,,,,,0,,14.866874,13.8,6,P-GPS,
20500,2023-03-09 04:55:34,-23.5066382421976,152.091385863447,14.2,,,15.266874,11.3,10.71,19.3193,20.7164,20,5,0,15.266874,14.2,10.71,19.3193,8.8,-6.1,-4.2,325.4, -19.1, 4.5,0,0,1684,1024,1612,1024,100,0,89,0,0,0,0,100,,,,,,,0,,15.266874,14.2,6,P-GPS,
20600,2023-03-09 04:55:34,-23.5066302213365,152.09137981881,14.6,,,15.666874,11.3,10.85,20.4034,21.8006,20,5,0,15.666874,14.6,10.85,20.4034,8.9,-6.2,-4.2,325.4, -19.2, 4.8,0,0,1684,1024,1610,1024,100,0,89,0,0,0,0,99,,,,,,,0,,15.666874,14.6,6,P-GPS,
20700,2023-03-09 04:55:34,-23.5066221049633,152.091373836,15.1,,,16.166874,11.3,11.07,21.4924,22.89,20,5,0,16.166874,15.1,11.07,21.4924,9.1,-6.3,-4.2,325.3, -19.3, 5.1,0,0,1684,1024,1609,1024,100,0,89,0,0,0,0,99,,,,,,,0,,16.166874,15.1,6,P-GPS,
20800,2023-03-09 04:55:34,-23.5066138070581,152.091367603521,15.5,,,16.566874,11.3,11.07,22.6128,24.0105,20,5,0,16.566874,15.5,11.07,22.6128,9.2,-6.4,-4.2,325.3, -19.4, 5.3,0,0,1684,1024,1606,1024,100,0,88,0,0,0,0,99,,,,,,,0,,16.566874,15.5,6,P-GPS,
20900,2023-03-09 04:55:34,-23.5066053162613,152.0913613925,15.9,,,16.966874,11.3,11.43,23.7493,25.1475,20,5,0,16.966874,15.9,11.43,23.7493,9.4,-6.5,-4.2,325.3, -19.3, 5.3,0,0,1684,1024,1594,1024,100,0,86,0,0,0,0,99,,,,,,,0,,16.966874,15.9,6,P-GPS,
21000,2023-03-09 04:55:34,-23.5065967432225,152.09135499117,16.3,,,17.366874,11.3,11.57,24.9046,26.303,20,5,0,17.366874,16.3,11.57,24.9046,9.5,-6.6,-4.2,325.3, -19.3, 5.2,0,0,1684,1024,1595,1024,100,0,87,0,0,0,0,99,,,,,,,0,,17.366874,16.3,6,P-GPS,
21100,2023-03-09 04:55:34,-23.5065887791683,152.091348866368,16.8,,,17.866874,11.3,11.79,25.9883,27.3867,20,5,0,17.866874,16.8,11.79,25.9883,9.7,-6.7,-4.1,325.3, -19.5, 5.1,0,0,1684,1024,1595,1024,100,0,87,0,0,0,0,99,,,,,,,0,,17.866874,16.8,6,P-GPS,
21200,2023-03-09 04:55:34,-23.5065800329074,152.091342332016,17.2,,,18.266874,11.3,11.93,27.1672,28.5657,20,5,0,18.266874,17.2,11.93,27.1672,9.8,-6.8,-4.1,325.4, -19.5, 5.1,0,0,1684,1024,1596,1024,100,0,87,0,0,0,0,99,,,,,,,0,,18.266874,17.2,6,P-GPS,
21300,2023-03-09 04:55:34,-23.5065711849748,152.091335813171,17.6,,,18.666874,11.3,11.93,28.3544,29.7532,20,5,0,18.666874,17.6,11.93,28.3544,9.9,-6.9,-4.1,325.4, -19.5, 5.3,0,0,1684,1024,1597,1024,100,0,87,0,0,0,0,99,,,,,,,0,,18.666874,17.6,6,P-GPS,
21400,2023-03-09 04:55:35,-23.5065622091046,152.091329113817,18,,,19.066874,11.3,12.29,29.5639,30.9628,20,5,0,19.066874,18,12.29,29.5639,10.1,-7,-4,325.3, -19.3, 5.2,0,0,1684,1024,1606,1024,100,0,88,0,0,0,0,99,,,,,,,0,,19.066874,18,6,P-GPS,
21500,2023-03-09 04:55:35,-23.5065524687955,152.091321809634,18.4,,,19.466874,11.3,12.37,30.8783,32.2773,20,5,0,19.466874,18.4,12.37,30.8783,10.2,-7,-4,325.2, -19.2, 5.3,0,0,1684,1024,1610,1024,100,0,89,0,0,0,0,99,,,,,,,0,,19.466874,18.4,6,P-GPS,
21600,2023-03-09 04:55:35,-23.5065432160612,152.091314896774,18.8,,,19.866874,11.3,12.51,32.1255,33.5246,20,5,0,19.866874,18.8,12.51,32.1255,10.3,-7.1,-4.1,325.2, -19, 5.4,0,0,1684,1024,1618,1024,100,0,90,0,0,0,0,99,,,,,,,0,,19.866874,18.8,6,P-GPS,
21700,2023-03-09 04:55:35,-23.506533972699,152.091307894155,19.2,,,20.266874,11.3,12.51,33.3771,34.7762,20,5,0,20.266874,19.2,12.51,33.3771,10.4,-7.2,-4.1,325.2, -18.7, 5.5,0,0,1684,1024,1618,1024,100,0,90,0,0,0,0,99,,,,,,,0,,20.266874,19.2,6,P-GPS,
21800,2023-03-09 04:55:35,-23.5065245226183,152.091300820125,19.6,,,20.666874,11.3,12.79,34.6517,36.0509,20,5,0,20.666874,19.6,12.79,34.6517,10.5,-7.3,-4.1,325.1, -18.5, 5.6,0,0,1684,1024,1622,1024,100,0,91,0,0,0,0,99,,,,,,,0,,20.666874,19.6,6,P-GPS,
21900,2023-03-09 04:55:35,-23.5065150120898,152.091293743012,20.1,,,21.166874,11.3,12.93,35.932,37.3313,20,5,0,21.166874,20.1,12.93,35.932,10.6,-7.4,-4.2,324.9, -18.3, 5.8,0,0,1684,1024,1621,1024,100,0,90,0,0,0,0,99,,,,,,,0,,21.166874,20.1,6,P-GPS,
22000,2023-03-09 04:55:35,-23.5065053645084,152.091286531895,20.5,,,21.566874,11.3,13.09,37.2326,38.632,20,5,0,21.566874,20.5,13.09,37.2326,10.8,-7.4,-4.2,325, -18.2, 5.9,0,0,1684,1024,1618,1024,100,0,90,0,0,0,0,99,,,,,,,0,,21.566874,20.5,6,P-GPS,
22100,2023-03-09 04:55:35,-23.506496461765,152.091280092272,20.9,,,21.966874,11.3,13.23,38.4203,39.8201,20,5,0,21.966874,20.9,13.23,38.4203,10.9,-7.5,-4.3,325, -18.3, 5.8,0,0,1684,1024,1617,1024,100,0,90,0,0,0,0,99,,,,,,,0,,21.966874,20.9,6,P-GPS,
22200,2023-03-09 04:55:35,-23.5064867058984,152.091272834743,21.3,,,22.366874,11.3,13.31,39.7335,41.1334,20,5,0,22.366874,21.3,13.31,39.7335,11,-7.5,-4.3,325.1, -18.5, 5.8,0,0,1684,1024,1617,1024,100,0,90,0,0,0,0,99,,,,,,,0,,22.366874,21.3,6,P-GPS,
22300,2023-03-09 04:55:35,-23.5064767985867,152.091265460904,21.8,,,22.866874,11.3,13.45,41.0673,42.4673,20,5,0,22.866874,21.8,13.45,41.0673,11.1,-7.6,-4.2,325.1, -18.7, 5.6,0,0,1684,1024,1616,1024,100,0,90,0,0,0,0,99,,,,,,,0,,22.866874,21.8,6,P-GPS,
22400,2023-03-09 04:55:36,-23.5064668645806,152.091258074696,22.3,,,23.366874,11.3,13.54,42.4043,43.8044,20,5,0,23.366874,22.3,13.54,42.4043,11.2,-7.6,-4.3,325.2, -18.7, 5.3,0,0,1684,1024,1616,1024,100,0,90,0,0,0,0,99,,,,,,,0,,23.366874,22.3,6,P-GPS,
22500,2023-03-09 04:55:36,-23.506456296112,152.09124979194,22.7,,,23.766874,11.3,13.59,43.8515,45.2517,20,5,0,23.766874,22.7,13.59,43.8515,11.2,-7.7,-4.2,325.4, -18.6, 5.3,0,0,1684,1024,1616,1024,100,0,90,0,0,0,0,99,,,,,,,0,,23.766874,22.7,6,P-GPS,
22600,2023-03-09 04:55:36,-23.5064461422458,152.091242203718,23.2,,,24.266874,11.3,13.73,45.2203,46.6206,20,5,0,24.266874,23.2,13.73,45.2203,11.3,-7.8,-4.2,325.4, -18.3, 5.3,0,0,1684,1024,1616,1024,100,0,90,0,0,0,0,99,,,,,,,0,,24.266874,23.2,6,P-GPS,
22700,2023-03-09 04:55:36,-23.5064360163418,152.091234552566,23.6,,,24.666874,11.3,13.81,46.5902,47.9905,20,5,0,24.666874,23.6,13.81,46.5902,11.4,-7.8,-4.2,325.4, -18.2, 5.4,0,0,1684,1024,1616,1024,100,0,90,0,0,0,0,99,,,,,,,0,,24.666874,23.6,6,P-GPS,
22800,2023-03-09 04:55:36,-23.5064257247545,152.091226838897,24.1,,,25.166874,11.3,13.95,47.979,49.3793,20,5,0,25.166874,24.1,13.95,47.979,11.5,-7.9,-4.2,325.3, -18.1, 5.5,0,0,1684,1024,1616,1024,100,0,90,0,0,0,0,99,,,,,,,0,,25.166874,24.1,6,P-GPS,
22900,2023-03-09 04:55:36,-23.5064155192814,152.09121917149,24.5,,,25.566874,11.3,13.95,49.3571,50.7575,20,5,0,25.566874,24.5,13.95,49.3571,11.5,-7.9,-4.2,325.4, -18.1, 5.6,0,0,1684,1024,1615,1024,100,0,90,0,0,0,0,99,,,,,,,0,,25.566874,24.5,6,P-GPS,
23000,2023-03-09 04:55:36,-23.5064051095741,152.091211358813,25,,,26.066874,11.3,14.09,50.7624,52.1628,19,5,0,26.066874,25,14.09,50.7624,11.6,-8,-4.2,325.4, -18.2, 5.8,0,0,1684,1024,1615,1024,100,0,90,0,0,0,0,99,,,,,,,0,,26.066874,25,6,P-GPS,
23100,2023-03-09 04:55:36,-23.5063953154821,152.091204275871,25.4,,,26.466874,11.3,14.17,52.0689,53.4697,19,5,0,26.466874,25.4,14.17,52.0689,11.7,-8,-4.2,325.3, -18.3, 5.8,0,0,1684,1024,1612,1024,100,0,89,0,0,0,0,99,,,,,,,0,,26.466874,25.4,6,P-GPS,
23200,2023-03-09 04:55:36,-23.5063848365888,152.091196436867,25.8,,,26.866874,11.3,14.31,53.482,54.8828,19,5,0,26.866874,25.8,14.31,53.482,11.8,-8.1,-4.2,325.3, -18.2, 5.8,0,0,1684,1024,1610,1024,100,0,89,0,0,0,0,99,,,,,,,0,,26.866874,25.8,6,P-GPS,
23300,2023-03-09 04:55:36,-23.5063741491435,152.091188605655,26.3,,,27.366874,11.3,14.31,54.9137,56.3147,19,5,0,27.366874,26.3,14.31,54.9137,11.8,-8.1,-4.2,325.3, -18.2, 5.7,0,0,1684,1024,1610,1024,100,0,89,0,0,0,0,99,,,,,,,0,,27.366874,26.3,6,P-GPS,
23400,2023-03-09 04:55:37,-23.5063635289654,152.091180678686,26.7,,,27.766874,11.3,14.45,56.3449,57.7459,18,5,0,27.766874,26.7,14.45,56.3449,11.9,-8.2,-4.2,325.3, -18.2, 5.8,0,0,1684,1024,1610,1024,100,0,89,0,0,0,0,99,,,,,,,0,,27.766874,26.7,6,P-GPS,
23500,2023-03-09 04:55:37,-23.5063519816462,152.091171811784,27.1,,,28.166874,11.3,14.53,57.9154,59.3164,18,5,0,28.166874,27.1,14.53,57.9154,12,-8.2,-4.2,325.3, -18.3, 5.8,0,0,1684,1024,1611,1024,100,0,89,0,0,0,0,99,,,,,,,0,,28.166874,27.1,6,P-GPS,
23600,2023-03-09 04:55:37,-23.5063411683708,152.091163725736,27.6,,,28.666874,11.3,14.59,59.3734,60.7745,18,5,0,28.666874,27.6,14.59,59.3734,12,-8.3,-4.2,325.2, -18.3, 5.9,0,0,1684,1024,1611,1024,100,0,89,0,0,0,0,99,,,,,,,0,,28.666874,27.6,6,P-GPS,
23700,2023-03-09 04:55:37,-23.5063303943659,152.091155664838,28,,,29.066874,11.3,14.59,60.8264,62.2275,18,5,0,29.066874,28,14.59,60.8264,12,-8.3,-4.2,325.1, -18.4, 6,0,0,1684,1024,1610,1024,100,0,89,0,0,0,0,99,,,,,,,0,,29.066874,28,6,P-GPS,
23800,2023-03-09 04:55:37,-23.5063194795216,152.091147504502,28.4,,,29.466874,11.3,14.67,62.2981,63.6992,18,5,0,29.466874,28.4,14.67,62.2981,12.1,-8.3,-4.2,325.2, -18.5, 6.1,0,0,1684,1024,1610,1024,100,0,89,0,0,0,0,99,,,,,,,0,,29.466874,28.4,6,P-GPS,
23900,2023-03-09 04:55:37,-23.5063083832311,152.091139338336,28.8,,,29.866874,11.3,14.81,63.7866,65.1879,18,5,0,29.866874,28.8,14.81,63.7866,12.2,-8.4,-4.1,325.1, -18.4, 6.1,0,0,1684,1024,1611,1024,100,0,89,0,0,0,0,99,,,,,,,0,,29.866874,28.8,6,P-GPS,
24000,2023-03-09 04:55:37,-23.5062973403635,152.091131105168,29.3,,,30.366874,11.3,14.81,65.2742,66.6755,18,5,0,30.366874,29.3,14.81,65.2742,12.2,-8.4,-4.1,325.1, -18.3, 5.9,0,0,1684,1024,1611,1024,100,0,89,0,0,0,0,99,,,,,,,0,,30.366874,29.3,6,P-GPS,
24100,2023-03-09 04:55:37,-23.506287223232,152.091123615898,29.7,,,30.766874,11.3,14.89,66.6339,68.0353,18,5,0,30.766874,29.7,14.89,66.6339,12.3,-8.4,-4.2,325.1, -18.1, 5.9,0,0,1684,1024,1610,1024,100,0,89,0,0,0,0,99,,,,,,,0,,30.766874,29.7,6,P-GPS,
24200,2023-03-09 04:55:37,-23.5062761628195,152.091115374061,30.1,,,31.166874,11.3,14.95,68.1236,69.5251,19,5,0,31.166874,30.1,14.95,68.1236,12.3,-8.5,-4.1,325.1, -18.2, 6.1,0,0,1684,1024,1610,1024,100,0,89,0,0,0,0,99,,,,,,,0,,31.166874,30.1,6,P-GPS,
24300,2023-03-09 04:55:38,-23.5062646699513,152.091107142985,30.5,,,31.566874,11.3,15.03,69.6522,71.0541,19,5,0,31.566874,30.5,15.03,69.6522,12.4,-8.5,-4.1,325.1, -18.2, 6.3,0,0,1684,1024,1608,1024,100,0,88,0,0,0,0,99,,,,,,,0,,31.566874,30.5,6,P-GPS,
24400,2023-03-09 04:55:38,-23.5062534858332,152.091098850962,30.9,,,31.966874,11.3,15.03,71.1561,72.5581,19,5,0,31.966874,30.9,15.03,71.1561,12.4,-8.5,-4.1,325.1, -18.2, 6.3,0,0,1684,1024,1606,1024,100,0,88,0,0,0,0,99,,,,,,,0,,31.966874,30.9,6,P-GPS,
24500,2023-03-09 04:55:38,-23.5062412633761,152.091089974718,31.3,,,32.366874,11.3,15.12,72.7889,74.1911,19,5,0,32.366874,31.3,15.12,72.7889,12.5,-8.5,-4.1,325.2, -18.3, 6.1,0,0,1684,1024,1598,1024,100,0,87,0,0,0,0,99,,,,,,,0,,32.366874,31.3,6,P-GPS,
24600,2023-03-09 04:55:38,-23.506229895036,152.091081583556,31.8,,,32.866874,11.3,15.2,74.3154,75.7177,20,5,0,32.866874,31.8,15.2,74.3154,12.6,-8.5,-4.1,325.2, -18.3, 6,0,0,1684,1024,1587,1024,100,0,85,0,0,0,0,99,,,,,,,0,,32.866874,31.8,6,P-GPS,
24700,2023-03-09 04:55:38,-23.5062185812497,152.091073139554,32.2,,,33.266874,11.3,15.2,75.84,77.2424,20,5,0,33.266874,32.2,15.2,75.84,12.6,-8.6,-4.1,325.2, -18.3, 5.9,0,0,1660,1024,1539,1024,96,0,78,0,0,0,0,99,,,,,,,0,,33.266874,32.2,6,P-GPS,
